{"regions":[1,2,9,10,58,114],"tree":{"371712771":[73,3949],"92928192":[73,95],"371712970":[11612],"371712929":[960],"371712791":[4641],"371712938":[2960],"23232056":[2452],"92928202":[87,88],"92928243":[5965,4055,4056],"23232058":[2964,2963,960,2961,2929,2960,2965],"371712945":[15],"92928208":[110,111,4640,85,10985],"371712821":[100],"371712830":[99],"371712958":[21],"371712915":[4724],"92928239":[21],"371712925":[4725],"371713020":[13],"371712820":[11010],"92928231":[4725],"5808014":[79,2964,8,2452,21,55,23,4725,4724,15,2963,960],"92928232":[960],"92928233":[2929,2965],"92928222":[92],"371712965":[4054],"92928203":[2449,11026,11025],"92928241":[4054,4709],"371712917":[119],"371712964":[4709],"371712968":[4057],"371712841":[4027],"371712932":[2929],"371712975":[5965,4056],"92928242":[11612,4057],"92928249":[1771,4727],"371713012":[31],"23232055":[91,92],"92928255":[13],"371712822":[11007,11009],"371712936":[2963],"92928229":[119],"92928244":[60,117,4053,76,83],"371712780":[10989,10991,11031,10990,11006,10992,11333,11032,11334],"92928237":[8],"92928228":[79,4724],"92928207":[99,11005],"371713015":[39],"371712939":[2961,12783],"92928235":[2964],"371712922":[23],"371712944":[2930],"371713008":[58],"92928253":[31,39],"371712996":[1771],"92928234":[2963,2961,2960],"92928193":[74,3950,10993,10995],"92928211":[4029,4710],"371712991":[68],"92928230":[23],"371713010":[22],"371712942":[2964],"371712802":[63],"92928196":[72],"371713009":[7],"23232062":[1770,1771,4726,5642,4727,11610],"92928218":[93,11008,7225],"92928225":[2452],"371712834":[110,111,4640,10985,10984,10988],"371712805":[115,4707,3840,7324,11331],"371712960":[4052],"371712914":[79],"371712952":[55],"371712977":[60,4706,117,76,5943,5945],"371712972":[4055],"371712860":[4127],"371712792":[11034,11035],"371712831":[11005],"92928254":[48],"23232052":[110,120,4029,61,4734,111,4640,85,4710,10985,10987],"371712845":[4029,4710],"371712882":[91],"371712998":[4727],"92928248":[4726,5642,11610],"371713001":[1770],"92928245":[3824],"92928213":[949],"371712779":[90,11020],"92928252":[7,22,58],"92928240":[4052],"371712793":[101,11033,11029],"23232063":[7,22,48,13,31,39,58],"23232061":[68,60,36,117,4053,83],"92928194":[96,114,90,11021,11019,11030,11020,11018,11036,11330],"371712775":[10995],"92928246":[36],"92928247":[68],"371712786":[72],"92928236":[15,2930],"92928199":[75,67,118],"371712994":[4726],"371712807":[64,122,11027,11004],"371712950":[8],"371712902":[2452],"23232057":[79,23,4725,4724,119],"371712976":[4053,83],"5808013":[110,93,91,120,4029,70,61],"92928220":[91],"371712840":[10987,10986],"5808015":[7,22,48,5965,68,1770,13,4055,1771,11612,60],"23232054":[93,112,11008],"371712770":[95],"371712980":[3824],"23232060":[5965,4055,11612,4054,4052,4057,4709,4056],"371712818":[108,11000],"371712873":[93,7225],"371712872":[11008],"92928214":[70],"5808012":[73,96,72,115,114],"371712782":[11037],"92928216":[112],"371712866":[112],"23232053":[70,949],"371712835":[85],"92928215":[4127],"371712857":[70],"92928210":[61,4734,4027,10987,10986],"371712843":[61,4734,116,4028],"92928197":[4641],"371712778":[114,11019],"92928209":[120],"371712837":[120,4126],"371712934":[2965],"23232051":[99,4708,80,100,108,11007,10997,11010,11332,11009,11005,11002,10998],"92928250":[1770],"92928206":[80,11332,11002,10998,11001],"371712826":[80,11332,10998,10999],"371712824":[11002,11001,11003],"92928205":[100,11007,11010,11009],"92928204":[4708,66,108,10997,11011,11000],"371712817":[4708,10997,11011,11028,10996],"371712816":[66],"23232050":[115,87,88,64,62,63,3840,122,11027,11026],"23232048":[73,96,114,90,65,10989,74,11021,10994,11019,10991,6455,11037,11036,11330],"371712813":[2449,11026,11025],"23232059":[8,21,55,15,2930],"371712810":[87,88],"371713017":[48],"92928201":[115,4707,64,3840,122,11027,11004],"92928200":[62,63],"371712803":[62],"371712852":[949],"371712776":[96,11018,11036,11330],"371712888":[92,7226],"23232049":[72,75,67,98,101,118,4641,11034,11033,11029],"371712799":[118],"371712995":[5642,11610,11611],"371712796":[75,67,13374],"92928198":[98,101,11034,11033,11029],"371712794":[98],"371712986":[36],"92928195":[65,10989,10994,10991,11037,11031,10990,11032],"371712842":[11137],"371712783":[65],"371712781":[10994],"371712777":[11021,11030],"92928238":[55],"371712774":[74,10993],"371712772":[3950,6455]},"nodes":{"11003":{"elevation":981.380005,"longitude":20.141735,"name":"Odej\u015Bcie \u015Bcie\u017Cki edukacyjnej","region":"Gorce","id":11003,"type":"node","icon":"node,10,24","latitude":49.516528},"11035":{"elevation":703.820007,"longitude":20.131935,"name":"Potasznia, rozej\u015Bcie szlaku spacerowego","region":"Gorce","id":11035,"type":"node","icon":"node,10,24","latitude":49.578798},"11004":{"elevation":834.369995,"longitude":20.123665,"name":"Polana Kolasikowa","region":"Gorce","id":11004,"type":"node","icon":"node,10,24","latitude":49.525832},"11333":{"elevation":672.419983,"longitude":20.087720,"name":"Ober\u00F3wka, odej\u015Bcie \u015Bcie\u017Cki edukacyjnej","region":"Gorce","id":11333,"type":"node","icon":"node,10,24","latitude":49.579807},"11330":{"elevation":948.650024,"longitude":20.039881,"name":"Odej\u015Bcie na Stare Izbiska","region":"Gorce","id":11330,"type":"node","icon":"node,10,24","latitude":49.570400},"10992":{"elevation":672.450012,"longitude":20.087414,"name":"Ober\u00F3wka","region":"Gorce","id":10992,"type":"node","icon":"node,10,24","latitude":49.579925},"4127":{"elevation":448.549988,"longitude":20.348247,"name":"Kamienica, Pierzgi","region":"Beskid Wyspowy","id":4127,"type":"node","icon":"node,10,24","latitude":49.576435},"11006":{"elevation":676.719971,"longitude":20.086246,"name":"Odej\u015Bcie \u015Bcie\u017Cki edukacyjnej","region":"Gorce","id":11006,"type":"node","icon":"node,10,24","latitude":49.580496},"11025":{"elevation":820.219971,"longitude":20.124028,"name":"Odej\u015Bcie \u015Bcie\u017Cki edukacyjnej","region":"Gorce","id":11025,"type":"node","icon":"node,10,24","latitude":49.524002},"10995":{"elevation":1026.530029,"longitude":20.111257,"name":"Pod Turbaczykiem","region":"Gorce","id":10995,"type":"node","icon":"node,10,24","latitude":49.582536},"11029":{"elevation":988.330017,"longitude":20.149256,"name":"Skrzy\u017Cowanie przy polanie Kopa","region":"Gorce","id":11029,"type":"node","icon":"node,10,24","latitude":49.576579},"11137":{"elevation":786.539978,"longitude":20.218984,"name":"Dolina Kamienicy, odej\u015Bcie szlaku spacerowego","region":"Gorce","id":11137,"type":"node","icon":"node,10,24","latitude":49.567121},"2960":{"elevation":883.000000,"longitude":20.051822,"name":"Grze\u015Bk\u00F3w Wierch","region":"Pog\u00F3rza Przedtatrza\u0144skie","id":2960,"type":"node","icon":"node,10,24","latitude":49.384189},"11036":{"elevation":676.820007,"longitude":20.051020,"name":"Por\u0119ba G\u00F3rna, pocz\u0105tek szlaku spacerowego","region":"Gorce","id":11036,"type":"node","icon":"node,10,24","latitude":49.575660},"4126":{"elevation":514.179993,"longitude":20.296697,"name":"Szczawa, most","region":"Gorce","id":4126,"type":"node","icon":"node,10,24","latitude":49.605223},"10996":{"elevation":1277.079956,"longitude":20.149553,"name":"Trzy Kopce","region":"Gorce","id":10996,"type":"node","icon":"node,10,24","latitude":49.542598},"2930":{"elevation":609.359985,"longitude":20.137917,"name":"Nowa Bia\u0142a, skrzy\u017Cowanie","region":"Kotlina Orawsko-Nowotarska","id":2930,"type":"node","icon":"node,10,24","latitude":49.437816},"11331":{"elevation":1262.239990,"longitude":20.119636,"name":"Hala Wolnica","region":"Gorce","id":11331,"type":"node","icon":"node,10,24","latitude":49.544229},"11028":{"elevation":1224.329956,"longitude":20.158873,"name":"Widok na zbocza Kud\u0142onia","region":"Gorce","id":11028,"type":"node","icon":"node,10,24","latitude":49.552290},"12783":{"elevation":873.780029,"longitude":20.077450,"name":"Rozej\u015Bcie szlak\u00F3w","region":"Pog\u00F3rza Przedtatrza\u0144skie","id":12783,"type":"node","icon":"node,10,24","latitude":49.390387},"11037":{"elevation":740.159973,"longitude":20.083827,"name":"Olszowy Potok","region":"Gorce","id":11037,"type":"node","icon":"node,10,24","latitude":49.567272},"6455":{"elevation":683.539978,"longitude":20.091974,"name":"Orkan\u00F3wka, kapliczka","region":"Gorce","id":6455,"type":"node","icon":"node,10,24","latitude":49.600131},"7226":{"elevation":517.400024,"longitude":20.305069,"name":"Ochotnica Dolna, skrzy\u017Cowanie","region":"Gorce","id":7226,"type":"node","icon":"node,10,24","latitude":49.523511},"11033":{"elevation":938.900024,"longitude":20.154454,"name":"Brukowana Droga","region":"Gorce","id":11033,"type":"node","icon":"node,10,24","latitude":49.570666},"10988":{"elevation":724.109985,"longitude":20.223186,"name":"Trusi\u00F3wka, odej\u015Bcie \u015Bcie\u017Cki edukacyjnej","region":"Gorce","id":10988,"type":"node","icon":"node,10,24","latitude":49.583315},"11005":{"elevation":725.299988,"longitude":20.202417,"name":"Ochotnica G\u00F3rna, Ustrzyk","region":"Gorce","id":11005,"type":"node","icon":"node,10,24","latitude":49.506653},"11027":{"elevation":880.270020,"longitude":20.125545,"name":"Polana \u017Bubrowisko","region":"Gorce","id":11027,"type":"node","icon":"node,10,24","latitude":49.531531},"10991":{"elevation":896.239990,"longitude":20.090373,"name":"Sza\u0142asisko","region":"Gorce","id":10991,"type":"node","icon":"node,10,24","latitude":49.572490},"11034":{"elevation":691.890015,"longitude":20.132480,"name":"Konina, polana Potasznia","region":"Gorce","id":11034,"type":"node","icon":"node,10,24","latitude":49.580655},"5945":{"elevation":1173.739990,"longitude":20.339859,"name":"Skrzy\u017Cowanie szlak\u00F3w niebieski / zielony / \u017C\u00F3\u0142ty","region":"Gorce","id":5945,"type":"node","icon":"node,10,24","latitude":49.487344},"11610":{"elevation":822.750000,"longitude":20.241768,"name":"Polana Wapienne","region":"Pieniny","id":11610,"type":"node","icon":"node,10,24","latitude":49.416732},"13374":{"elevation":1270.920044,"longitude":20.176227,"name":"Kud\u0142o\u0144","region":"Gorce","id":13374,"type":"node","icon":"node,10,24","latitude":49.572587},"5943":{"elevation":1083.199951,"longitude":20.332762,"name":"Pod Lubaniem, odej\u015Bcie szlaku \u017C\u00F3\u0142tego","region":"Gorce","id":5943,"type":"node","icon":"node,10,24","latitude":49.490514},"11011":{"elevation":1214.339966,"longitude":20.153751,"name":"Zb\u00F3jecka Jama","region":"Gorce","id":11011,"type":"node","icon":"node,10,24","latitude":49.549623},"4727":{"elevation":724.580017,"longitude":20.278876,"name":"Cis\u00F3wka","region":"Pieniny","id":4727,"type":"node","icon":"node,10,24","latitude":49.416279},"5642":{"elevation":682.799988,"longitude":20.256329,"name":"Prze\u0142\u0119cz Przes\u0142a","region":"Pieniny","id":5642,"type":"node","icon":"node,10,24","latitude":49.416182},"10987":{"elevation":777.650024,"longitude":20.219468,"name":"Papie\u017C\u00F3wka","region":"Gorce","id":10987,"type":"node","icon":"node,10,24","latitude":49.568991},"2965":{"elevation":689.489990,"longitude":20.090368,"name":"Kobylarz\u00F3wka","region":"Pog\u00F3rza Przedtatrza\u0144skie","id":2965,"type":"node","icon":"node,10,24","latitude":49.422830},"11019":{"elevation":1009.080017,"longitude":20.054579,"name":"Polana Pudziska","region":"Gorce","id":11019,"type":"node","icon":"node,10,24","latitude":49.559453},"4056":{"elevation":544.000000,"longitude":20.291591,"name":"Osada Turystyczna Czorsztyn","region":"Gorce","id":4056,"type":"node","icon":"node,10,24","latitude":49.442014},"3950":{"elevation":690.000000,"longitude":20.093703,"name":"Orkan\u00F3wka","region":"Gorce","id":3950,"type":"node","icon":"node,10,24","latitude":49.599545},"949":{"elevation":551.000000,"longitude":20.352746,"name":"Zbludza","region":"Beskid Wyspowy","id":949,"type":"node","icon":"node,10,24","latitude":49.599547},"11010":{"elevation":1039.300049,"longitude":20.174106,"name":"Pomnik bombowca Liberator","region":"Gorce","id":11010,"type":"node","icon":"node,10,24","latitude":49.540211},"11020":{"elevation":959.710022,"longitude":20.069447,"name":"Polana Suhora","region":"Gorce","id":11020,"type":"node","icon":"node,10,24","latitude":49.564629},"11332":{"elevation":689.070007,"longitude":20.129982,"name":"Zar\u0119bek \u015Aredni","region":"Gorce","id":11332,"type":"node","icon":"node,10,24","latitude":49.504622},"3949":{"elevation":603.219971,"longitude":20.082424,"name":"Koninki, skrzy\u017Cowanie","region":"Gorce","id":3949,"type":"node","icon":"node,10,24","latitude":49.591909},"10985":{"elevation":836.179993,"longitude":20.218172,"name":"Rzeki, Cyrkowe","region":"Gorce","id":10985,"type":"node","icon":"node,10,24","latitude":49.590482},"11021":{"elevation":959.849976,"longitude":20.068832,"name":"Polana Tobo\u0142\u00F3w","region":"Gorce","id":11021,"type":"node","icon":"node,10,24","latitude":49.578697},"4726":{"elevation":874.219971,"longitude":20.229757,"name":"\u017Bar (Branisko)","region":"Pieniny","id":4726,"type":"node","icon":"node,10,24","latitude":49.418203},"4028":{"elevation":1190.329956,"longitude":20.255055,"name":"Skrzy\u017Cowanie pod Gorcem","region":"Gorce","id":4028,"type":"node","icon":"node,10,24","latitude":49.565782},"4710":{"elevation":731.479980,"longitude":20.294140,"name":"Wierch M\u0142ynne","region":"Gorce","id":4710,"type":"node","icon":"node,10,24","latitude":49.571535},"4052":{"elevation":916.559998,"longitude":20.232216,"name":"Pod Kotelnic\u0105","region":"Gorce","id":4052,"type":"node","icon":"node,10,24","latitude":49.491622},"83":{"elevation":1036.000000,"longitude":20.308005,"name":"Morgi","region":"Gorce","id":83,"type":"node","icon":"node,10,24","latitude":49.491545},"85":{"elevation":841.000000,"longitude":20.249781,"name":"Nowa Polana","region":"Gorce","id":85,"type":"node","icon":"node,10,24","latitude":49.582765},"4724":{"elevation":549.979980,"longitude":20.167784,"name":"Harklowa","region":"Kotlina Orawsko-Nowotarska","id":4724,"type":"place","icon":"place,24,120","latitude":49.473889},"62":{"elevation":1119.000000,"longitude":20.079239,"name":"Bukowina Miejska","region":"Gorce","id":62,"type":"node","icon":"node,10,24","latitude":49.531829},"11018":{"elevation":748.210022,"longitude":20.045056,"name":"Odej\u015Bcie \u015Bcie\u017Cki edukacyjnej","region":"Gorce","id":11018,"type":"node","icon":"node,10,24","latitude":49.578922},"60":{"elevation":1188.709961,"longitude":20.340880,"name":"Baza namiotowa Luba\u0144","region":"Gorce","id":60,"type":"base","icon":"base,24,96,node,10,24","latitude":49.487796},"10999":{"elevation":729.130005,"longitude":20.142202,"name":"Ch\u0142apkowa","region":"Gorce","id":10999,"type":"node","icon":"node,10,24","latitude":49.505012},"91":{"elevation":488.600006,"longitude":20.320887,"name":"Ochotnica Dolna","region":"Gorce","id":91,"type":"place","icon":"place,24,120","latitude":49.525493},"11000":{"elevation":1088.199951,"longitude":20.141034,"name":"Polana Jank\u00F3wki","region":"Gorce","id":11000,"type":"node","icon":"node,10,24","latitude":49.526218},"11026":{"elevation":802.710022,"longitude":20.124907,"name":"Gaj\u00F3wka Miko\u0142aja","region":"Gorce","id":11026,"type":"node","icon":"node,10,24","latitude":49.521253},"63":{"elevation":983.010010,"longitude":20.040009,"name":"Bukowina Obidowska","region":"Gorce","id":63,"type":"node","icon":"node,10,24","latitude":49.533868},"11611":{"elevation":820.390015,"longitude":20.242379,"name":"Rozej\u015Bcie szlak\u00F3w czerwony / zielony","region":"Pieniny","id":11611,"type":"node","icon":"node,10,24","latitude":49.417055},"10984":{"elevation":720.419983,"longitude":20.222700,"name":"Trusi\u00F3wka","region":"Gorce","id":10984,"type":"node","icon":"node,10,24","latitude":49.583494},"7324":{"elevation":1283.000000,"longitude":20.118554,"name":"Schronisko PTTK Turbacz, rozej\u015Bcie szlak\u00F3w","region":"Gorce","id":7324,"type":"node","icon":"node,10,24","latitude":49.543821},"10989":{"elevation":659.020020,"longitude":20.085364,"name":"Hucisko","region":"Gorce","id":10989,"type":"node","icon":"node,10,24","latitude":49.580326},"2449":{"elevation":1059.109985,"longitude":20.107964,"name":"Tomusiowa","region":"Gorce","id":2449,"type":"node","icon":"node,10,24","latitude":49.523381},"15":{"elevation":593.739990,"longitude":20.161630,"name":"Krempachy","region":"Pieniny","id":15,"type":"place","icon":"place,24,120","latitude":49.434516},"119":{"elevation":893.869995,"longitude":20.213513,"name":"Studzionki","region":"Gorce","id":119,"type":"node","icon":"node,10,24","latitude":49.496491},"4725":{"elevation":539.000000,"longitude":20.204194,"name":"D\u0119bno","region":"Kotlina Orawsko-Nowotarska","id":4725,"type":"place","icon":"place,24,120","latitude":49.464155},"23":{"elevation":604.229980,"longitude":20.144021,"name":"Nowa Biala","region":"Kotlina Orawsko-Nowotarska","id":23,"type":"place","icon":"place,24,120","latitude":49.440770},"72":{"elevation":622.000000,"longitude":20.134131,"name":"Konina","region":"Gorce","id":72,"type":"place","icon":"place,24,120","latitude":49.596303},"118":{"elevation":901.000000,"longitude":20.199561,"name":"Skrzy\u017Cowanie pod Stawie\u0144cem","region":"Gorce","id":118,"type":"node","icon":"node,10,24","latitude":49.561916},"4708":{"elevation":1282.000000,"longitude":20.149943,"name":"Kiczora","region":"Gorce","id":4708,"type":"node","icon":"node,10,24","latitude":49.539921},"70":{"elevation":448.000000,"longitude":20.344436,"name":"Kamienica","region":"Gorce","id":70,"type":"place","icon":"place,24,120","latitude":49.574616},"4707":{"elevation":1310.000000,"longitude":20.111341,"name":"Turbacz","region":"Gorce","id":4707,"type":"node","icon":"node,10,24","latitude":49.542847},"87":{"elevation":655.349976,"longitude":20.054144,"name":"Nowy Targ, Oleks\u00F3wki","region":"Gorce","id":87,"type":"node","icon":"node,10,24","latitude":49.505957},"90":{"elevation":1088.849976,"longitude":20.071093,"name":"Obidowiec","region":"Gorce","id":90,"type":"node","icon":"node,10,24","latitude":49.559944},"10994":{"elevation":1058.709961,"longitude":20.113989,"name":"Polana Turbaczyk","region":"Gorce","id":10994,"type":"node","icon":"node,10,24","latitude":49.582018},"21":{"elevation":671.000000,"longitude":20.190880,"name":"\u0141apsze Wy\u017Cne","region":"Magura Spiska","id":21,"type":"place","icon":"place,24,120","latitude":49.394670},"4709":{"elevation":1005.000000,"longitude":20.263960,"name":"Runek","region":"Gorce","id":4709,"type":"node","icon":"node,10,24","latitude":49.496430},"4055":{"elevation":557.049988,"longitude":20.263912,"name":"Maniowy","region":"Gorce","id":4055,"type":"place","icon":"place,24,120","latitude":49.456486},"4706":{"elevation":1211.000000,"longitude":20.338938,"name":"Luba\u0144","region":"Gorce","id":4706,"type":"node","icon":"node,10,24","latitude":49.489251},"4057":{"elevation":551.830017,"longitude":20.228415,"name":"Huba","region":"Gorce","id":4057,"type":"node","icon":"node,10,24","latitude":49.467249},"2452":{"elevation":567.000000,"longitude":20.100013,"name":"Ostrowsko","region":"Gorce","id":2452,"type":"place","icon":"place,24,120","latitude":49.479641},"76":{"elevation":1075.540039,"longitude":20.339089,"name":"Luba\u0144, Ruiny bac\u00F3wki","region":"Gorce","id":76,"type":"node","icon":"node,10,24","latitude":49.484794},"80":{"elevation":652.000000,"longitude":20.138210,"name":"\u0141opuszna, Zar\u0119bek Ni\u017Cni","region":"Gorce","id":80,"type":"node","icon":"node,10,24","latitude":49.498075},"55":{"elevation":661.000000,"longitude":20.135762,"name":"Trybsz","region":"Magura Spiska","id":55,"type":"place","icon":"place,24,120","latitude":49.408633},"108":{"elevation":1129.319946,"longitude":20.146322,"name":"R\u0105baniska","region":"Gorce","id":108,"type":"node","icon":"node,10,24","latitude":49.525232},"61":{"elevation":1098.219971,"longitude":20.247771,"name":"Baza namiotowa Gorc","region":"Gorce","id":61,"type":"base","icon":"base,24,96,node,10,24","latitude":49.557698},"2929":{"elevation":640.039978,"longitude":20.103332,"name":"Cisowa Ska\u0142a","region":"Kotlina Orawsko-Nowotarska","id":2929,"type":"node","icon":"node,10,24","latitude":49.434452},"64":{"elevation":1103.000000,"longitude":20.105079,"name":"Bukowina Waksmundzka","region":"Gorce","id":64,"type":"node","icon":"node,10,24","latitude":49.526648},"79":{"elevation":562.000000,"longitude":20.132397,"name":"\u0141opuszna","region":"Gorce","id":79,"type":"place","icon":"place,24,120","latitude":49.476259},"2963":{"elevation":699.960022,"longitude":20.060073,"name":"Le\u015Bnica","region":"Pog\u00F3rza Przedtatrza\u0144skie","id":2963,"type":"place","icon":"place,24,120","latitude":49.401714},"11001":{"elevation":1082.949951,"longitude":20.138876,"name":"Pod Wyszni\u0105","region":"Gorce","id":11001,"type":"node","icon":"node,10,24","latitude":49.523534},"10993":{"elevation":831.830017,"longitude":20.099072,"name":"Skrzy\u017Cowanie szlak\u00F3w","region":"Gorce","id":10993,"type":"node","icon":"node,10,24","latitude":49.590200},"95":{"elevation":631.000000,"longitude":20.046310,"name":"Por\u0119ba G\u00F3rna","region":"Gorce","id":95,"type":"place","icon":"place,24,120","latitude":49.583830},"93":{"elevation":624.000000,"longitude":20.246965,"name":"Ochotnica G\u00F3rna","region":"Gorce","id":93,"type":"place","icon":"place,24,120","latitude":49.511044},"96":{"elevation":659.479980,"longitude":20.041748,"name":"Por\u0119ba G\u00F3rna, Chlipa\u0142y","region":"Gorce","id":96,"type":"place","icon":"place,24,120","latitude":49.581249},"2964":{"elevation":690.849976,"longitude":20.104978,"name":"Bia\u0142ka Tatrza\u0144ska","region":"Pog\u00F3rza Przedtatrza\u0144skie","id":2964,"type":"place","icon":"place,24,120","latitude":49.389422},"122":{"elevation":1209.109985,"longitude":20.109478,"name":"Wisielak\u00F3wka","region":"Gorce","id":122,"type":"node","icon":"node,10,24","latitude":49.537418},"10998":{"elevation":707.340027,"longitude":20.143774,"name":"Pocz\u0105tek \u015Bcie\u017Cki edukacyjnej \"Z \u0141opusznej na Jank\u00F3wki\"","region":"Gorce","id":10998,"type":"node","icon":"node,10,24","latitude":49.502866},"114":{"elevation":963.650024,"longitude":20.039605,"name":"Schronisko PTTK Stare Wierchy","region":"Gorce","id":114,"type":"shelter","icon":"shelter,24,48,node,10,24","latitude":49.559837},"4640":{"elevation":723.090027,"longitude":20.223186,"name":"Trusi\u00F3wka, mostek","region":"Gorce","id":4640,"type":"node","icon":"node,10,24","latitude":49.583552},"73":{"elevation":603.000000,"longitude":20.080849,"name":"Koninki","region":"Gorce","id":73,"type":"place","icon":"place,24,120","latitude":49.592821},"11031":{"elevation":825.890015,"longitude":20.089013,"name":"Droga stokowa, rozej\u015Bcie szlak\u00F3w","region":"Gorce","id":11031,"type":"node","icon":"node,10,24","latitude":49.575602},"3840":{"elevation":1224.469971,"longitude":20.114802,"name":"Hala Turbacz","region":"Gorce","id":3840,"type":"node","icon":"node,10,24","latitude":49.549774},"65":{"elevation":1202.390015,"longitude":20.113003,"name":"Skrzy\u017Cowanie pod Czo\u0142em Turbacza","region":"Gorce","id":65,"type":"node","icon":"node,10,24","latitude":49.554446},"5965":{"elevation":577.400024,"longitude":20.296001,"name":"Kluszkowce","region":"Gorce","id":5965,"type":"place","icon":"place,24,120","latitude":49.451844},"22":{"elevation":555.479980,"longitude":20.317844,"name":"Niedzica-Zamek","region":"Pieniny","id":22,"type":"place","icon":"place,24,120","latitude":49.421594},"67":{"elevation":1214.680054,"longitude":20.187622,"name":"Gorc Troszacki","region":"Gorce","id":67,"type":"node","icon":"node,10,24","latitude":49.573186},"10986":{"elevation":760.750000,"longitude":20.219119,"name":"G\u00F3rska olszyna bagienna","region":"Gorce","id":10986,"type":"node","icon":"node,10,24","latitude":49.572512},"116":{"elevation":1191.560059,"longitude":20.250093,"name":"Skrzy\u017Cowanie pod Gorcem","region":"Gorce","id":116,"type":"node","icon":"node,10,24","latitude":49.563241},"111":{"elevation":687.619995,"longitude":20.234991,"name":"Rzeki, szlak niebieski","region":"Gorce","id":111,"type":"node","icon":"node,10,24","latitude":49.593503},"68":{"elevation":549.000000,"longitude":20.369725,"name":"Grywa\u0142d","region":"Gorce","id":68,"type":"place","icon":"place,24,120","latitude":49.446776},"1771":{"elevation":671.229980,"longitude":20.266429,"name":"Falsztyn","region":"Pieniny","id":1771,"type":"place","icon":"place,24,120","latitude":49.429120},"4054":{"elevation":1006.849976,"longitude":20.298636,"name":"Polana Kud\u00F3w","region":"Gorce","id":4054,"type":"node","icon":"node,10,24","latitude":49.491242},"48":{"elevation":493.869995,"longitude":20.340098,"name":"Sromowce Wy\u017Cne","region":"Pieniny","id":48,"type":"place","icon":"place,24,120","latitude":49.405159},"1770":{"elevation":577.900024,"longitude":20.239126,"name":"\u0141apsze Ni\u017Cne","region":"Magura Spiska","id":1770,"type":"place","icon":"place,24,120","latitude":49.397597},"11030":{"elevation":954.539978,"longitude":20.070283,"name":"Skrzy\u017Cowanie przy polanie Jaworzyna Por\u0119bska","region":"Gorce","id":11030,"type":"node","icon":"node,10,24","latitude":49.581425},"11008":{"elevation":705.460022,"longitude":20.221915,"name":"Jaszcze","region":"Gorce","id":11008,"type":"node","icon":"node,10,24","latitude":49.523369},"115":{"elevation":1283.000000,"longitude":20.117987,"name":"Schronisko PTTK Turbacz","region":"Gorce","id":115,"type":"shelter","icon":"shelter,24,48,node,10,24","latitude":49.543379},"11612":{"elevation":528.590027,"longitude":20.230072,"name":"Frydman","region":"Kotlina Orawsko-Nowotarska","id":11612,"type":"place","icon":"place,24,120","latitude":49.449363},"99":{"elevation":835.000000,"longitude":20.187949,"name":"Prze\u0142\u0119cz Knurowska","region":"Gorce","id":99,"type":"node","icon":"node,10,24","latitude":49.503883},"110":{"elevation":750.000000,"longitude":20.226166,"name":"Rzeki","region":"Gorce","id":110,"type":"place","icon":"place,24,120","latitude":49.593234},"13":{"elevation":468.299988,"longitude":20.366335,"name":"Sromowce Wy\u017Cne, K\u0105ty","region":"Pieniny","id":13,"type":"place","icon":"place,24,120","latitude":49.406682},"4641":{"elevation":969.349976,"longitude":20.195809,"name":"Polana Podska\u0142y","region":"Gorce","id":4641,"type":"node","icon":"node,10,24","latitude":49.585407},"4029":{"elevation":600.260010,"longitude":20.289910,"name":"Zasadne","region":"Gorce","id":4029,"type":"place","icon":"place,24,120","latitude":49.579413},"4734":{"elevation":1228.000000,"longitude":20.252861,"name":"Gorc","region":"Gorce","id":4734,"type":"node","icon":"node,10,24","latitude":49.565003},"8":{"elevation":728.179993,"longitude":20.191821,"name":"Dursztyn","region":"Pieniny","id":8,"type":"place","icon":"place,24,120","latitude":49.413266},"120":{"elevation":531.000000,"longitude":20.298023,"name":"Szczawa","region":"Gorce","id":120,"type":"place","icon":"place,24,120","latitude":49.603401},"92":{"elevation":506.000000,"longitude":20.307654,"name":"Ochotnica Dolna, stacja benzynowa","region":"Gorce","id":92,"type":"node","icon":"node,10,24","latitude":49.524238},"112":{"elevation":839.000000,"longitude":20.228946,"name":"Schronisko Gorcza\u0144ska Chata (dawniej Hawiarska Koliba)","region":"Gorce","id":112,"type":"node","icon":"node,10,24","latitude":49.530755},"11002":{"elevation":977.450012,"longitude":20.142282,"name":"Odej\u015Bcie \u015Bcie\u017Cki edukacyjnej","region":"Gorce","id":11002,"type":"node","icon":"node,10,24","latitude":49.516236},"11009":{"elevation":858.859985,"longitude":20.188778,"name":"Polana \u0141onna","region":"Gorce","id":11009,"type":"node","icon":"node,10,24","latitude":49.538773},"2961":{"elevation":886.380005,"longitude":20.078180,"name":"Pod Kotelnic\u0105","region":"Pog\u00F3rza Przedtatrza\u0144skie","id":2961,"type":"node","icon":"node,10,24","latitude":49.389566},"88":{"elevation":617.000000,"longitude":20.040713,"name":"Nowy Targ, Kowaniec","region":"Gorce","id":88,"type":"node","icon":"node,10,24","latitude":49.498637},"11007":{"elevation":1100.770020,"longitude":20.181547,"name":"Magurki","region":"Gorce","id":11007,"type":"node","icon":"node,10,24","latitude":49.530971},"11032":{"elevation":871.630005,"longitude":20.096726,"name":"Paciepnica, odej\u015Bcie \u015Bcie\u017Cki edukacyjnej","region":"Gorce","id":11032,"type":"node","icon":"node,10,24","latitude":49.570609},"75":{"elevation":1274.000000,"longitude":20.176681,"name":"Kud\u0142o\u0144, rozej\u015Bcie szlak\u00F3w","region":"Gorce","id":75,"type":"node","icon":"node,10,24","latitude":49.572191},"960":{"elevation":619.000000,"longitude":20.082632,"name":"Gronk\u00F3w","region":"Kotlina Orawsko-Nowotarska","id":960,"type":"place","icon":"place,24,120","latitude":49.436726},"7":{"elevation":651.390015,"longitude":20.331407,"name":"Czorsztyn","region":"Pieniny","id":7,"type":"place","icon":"place,24,120","latitude":49.438101},"36":{"elevation":653.000000,"longitude":20.318969,"name":"Prze\u0142\u0119cz Snozka","region":"Gorce","id":36,"type":"node","icon":"node,10,24","latitude":49.451151},"58":{"elevation":567.520020,"longitude":20.313267,"name":"Zamek Czorsztyn","region":"Pieniny","id":58,"type":"node","icon":"node,10,24","latitude":49.435022},"31":{"elevation":668.000000,"longitude":20.351346,"name":"Prze\u0142\u0119cz Osice","region":"Pieniny","id":31,"type":"node","icon":"node,10,24","latitude":49.428319},"98":{"elevation":1009.000000,"longitude":20.145664,"name":"Prze\u0142\u0119cz Borek","region":"Gorce","id":98,"type":"node","icon":"node,10,24","latitude":49.559184},"10990":{"elevation":696.539978,"longitude":20.092308,"name":"Potok Turbacz, odej\u015Bcie \u015Bcie\u017Cki edukacyjnej","region":"Gorce","id":10990,"type":"node","icon":"node,10,24","latitude":49.577765},"39":{"elevation":795.000000,"longitude":20.379428,"name":"Prze\u0142\u0119cz Trzy Kopce","region":"Pieniny","id":39,"type":"node","icon":"node,10,24","latitude":49.418559},"4027":{"elevation":1133.900024,"longitude":20.251426,"name":"Gorc Kamienicki","region":"Gorce","id":4027,"type":"node","icon":"node,10,24","latitude":49.570075},"100":{"elevation":1161.000000,"longitude":20.211823,"name":"Polana Przys\u0142op Dolny","region":"Gorce","id":100,"type":"node","icon":"node,10,24","latitude":49.550741},"7225":{"elevation":599.700012,"longitude":20.249069,"name":"Ochotnica G\u00F3rna, skrzy\u017Cowanie","region":"Gorce","id":7225,"type":"node","icon":"node,10,24","latitude":49.513923},"66":{"elevation":1269.000000,"longitude":20.146500,"name":"Polana Gabrowska","region":"Gorce","id":66,"type":"node","icon":"node,10,24","latitude":49.542758},"11334":{"elevation":685.200012,"longitude":20.090293,"name":"Ober\u00F3wka, odej\u015Bcie \u015Bcie\u017Cki edukacyjnej","region":"Gorce","id":11334,"type":"node","icon":"node,10,24","latitude":49.578857},"101":{"elevation":1236.050049,"longitude":20.168312,"name":"Pustak","region":"Gorce","id":101,"type":"node","icon":"node,10,24","latitude":49.570296},"117":{"elevation":1078.819946,"longitude":20.329970,"name":"Skrzy\u017Cowanie pod Lubaniem","region":"Gorce","id":117,"type":"node","icon":"node,10,24","latitude":49.490605},"4053":{"elevation":1065.380005,"longitude":20.317783,"name":"Jaworzyny Ochotnickie","region":"Gorce","id":4053,"type":"node","icon":"node,10,24","latitude":49.491001},"10997":{"elevation":1265.439941,"longitude":20.158676,"name":"Polana Jaworzyna Kamienicka","region":"Gorce","id":10997,"type":"node","icon":"node,10,24","latitude":49.549650},"74":{"elevation":685.200012,"longitude":20.097054,"name":"Koninki, Zagronie","region":"Gorce","id":74,"type":"node","icon":"node,10,24","latitude":49.595081},"3824":{"elevation":1201.140015,"longitude":20.347203,"name":"\u015Aredni Gro\u0144","region":"Gorce","id":3824,"type":"node","icon":"node,10,24","latitude":49.487030}},"trails":{"19812":{"end_start_time":1,"distance":0.055500,"start_end_time":1,"id":19812,"encoded":"MA@FBl<0JBMl14kNd48k47d29g3E`","name":"Kud\u0142o\u0144 \u2194 Kud\u0142o\u0144, rozej\u015Bcie szlak\u00F3w"},"18880":{"end_start_time":2,"distance":0.110300,"start_end_time":3,"id":18880,"encoded":"M>1?Ol;NN9FX2@c4M`32S3L\\36_2Fl3Ag1Eh3FS11h","name":"Rozej\u015Bcie szlak\u00F3w \u2194 Pod Kotelnic\u0105"},"18879":{"end_start_time":40,"distance":2.731600,"start_end_time":60,"id":18879,"encoded":"M>8=7X;NCF9d7@P23_2CT4\\2B`GT?5d96\\@@T::P4E\\55P76P<2l3CP6@T7>h=?X56W:El40g9?h8Go>1\\9BW==\\16g2;d2:o8h23_Gg2KW3T49_23`3?W2Fl30W14l25o9o2>S3S1D_14l1;g2Mh32S69X>3kIH\\1;S2N\\1>W1>l25o6X2I[GS23_=S1Ao6X14k11h17[22l66g;Jh3?W6=P46o6?`1Fo2<l2CS31`1Lc2G`1K[2Ch42c4<d4;[46\\5EW62\\2Mg2Fl2Kk1Bd3:k1LP3Cc29h2:[1Hl32S1Oh2>gGh1Ck:P11S6lJW1>l1k2<lEl1>l4\\1Oh1X1@h3g1D`Nc53h16g57`19k7;P1Ao70\\1F[5EX2G_8FT27k89P12o74T1D_7:\\2Mg69X4DS89P1F[@l25o2D[2@c57_38o7AW2<W6JS2I[5H[1Fo2?o32S@k51WJk49_6l5GS1ET53g1>l2Mg1Eh2G_:P47c:P3IkGh3=[3h57_DP3Nk=T51W=h2AW3g2KWJl1D_Jl51W4Fd47c51X5Ok62\\4Jo4Fd55c5>\\2>g4J\\47c97P2<W5;X2Oc4?h2G_2Jd36_49`","name":"Le\u015Bnica \u2194 Rozej\u015Bcie szlak\u00F3w"},"16977":{"end_start_time":35,"distance":1.346000,"start_end_time":20,"id":16977,"encoded":"M>AHK\\<22NNl13d38\\10`5H\\8g3KhH\\4M`2_3HdEk3L\\8S5H\\6X8FT:d51XP50dMo4Fd1MW66TLS50d2_4@\\?P5EXH\\3O`14l2Mh6W4<dH[3Hd2`5>\\2_4M`2`4=X;W4<d@k3AhLT29h1D`Gh2I\\=T2B`18d23`3:l13P3L\\Nd3;`1BP1>l2Kl14l3?X3T2>h1;g34P1Hk36`6k2G`Nd1=d30lJX51X6k4M`4\\57`1;h2Mh1>X2Ch1;T38\\1Jh1Hl20\\32hc98l14k4Fd12[47dJk37T12o21P1N_12\\1=c?d19W17\\20[2Ed1Bc1;T1:_11T39c3>d33o41\\21c4Kd3IW<Ed3Cc:Lh20[71P2B_62\\2Hg3Cd7Oc97P76c8FT2D[3L\\2Io58h","name":"Rozej\u015Bcie szlak\u00F3w czerwony / zielony \u2194 Prze\u0142\u0119cz Przes\u0142a"},"16976":{"end_start_time":1,"distance":0.057800,"start_end_time":1,"id":16976,"encoded":"M>ABA`<22C1P1=d42d21d3Ah1Gd21d13P27l","name":"Polana Wapienne \u2194 Rozej\u015Bcie szlak\u00F3w czerwony / zielony"},"16974":{"end_start_time":20,"distance":1.002100,"start_end_time":15,"id":16974,"encoded":"M>B?8l<1K8>THo57`2_74T:c:IPH[7>TJW6MX1k46\\14k:IP9\\77l15_HBX4LkO0`14X8KT4\\<>h23`@1TP69X1Ao57`14k4Fd?P5;X1k5>\\;W7>T>o42d1l4Fd6l3B\\C\\37h15_2OP1F[OX1Hk6k5>o6ES19k6k10_5P2<k2Od2Ak3Hd37g69l6k4FP:c5H\\4\\4M`Nd6=P","name":"\u017Bar (Branisko) \u2194 Polana Wapienne"},"16605":{"end_start_time":3,"distance":0.223100,"start_end_time":5,"id":16605,"encoded":"MAE3C\\;O4B9P4BW7N\\7N[;Oh1@S29T27k6:`10_54\\A_6F\\?c72X7_2I\\","name":"Ober\u00F3wka, odej\u015Bcie \u015Bcie\u017Cki edukacyjnej \u2194 Ober\u00F3wka, odej\u015Bcie \u015Bcie\u017Cki edukacyjnej"},"16603":{"end_start_time":1,"distance":0.025700,"start_end_time":1,"id":16603,"encoded":"MAE5MT;O4<9h29g5OX","name":"Ober\u00F3wka \u2194 Ober\u00F3wka, odej\u015Bcie \u015Bcie\u017Cki edukacyjnej"},"16602":{"end_start_time":30,"distance":1.962200,"start_end_time":40,"id":16602,"encoded":"M@774h;ON;Fh1Hl2CS5Jl6=c4O\\41[8Dl58g<N\\8@_9H`6Bc4AP1D_36`3?k3E`2Hg3IX2:o5GT17o67\\2No42d2Hg7HT4:S7Ch1I_52`A`3:XGS4KP4E[2Fl1MW35l3IkK`14W16T1HW2;dIc7>hP6JT2Kk;4X6MW6LP2:o7;P4?S7D\\GT3HdId7;P1@h7;P17o5Dd1A[4KP8h2Al3T2G`Dc44`OW7;P?P33\\Nd6I`4H`3NX2Hh6GP1ET87hDdAJP1Bc6Gd2<k2B`9o45T:P<1P4LX6Gd1Eh21PGg42P2AW2JP25[8@`82S9<P79g74h1Og4Ll1@S","name":"Zar\u0119bek \u015Aredni \u2194 Gaj\u00F3wka Miko\u0142aja"},"16601":{"end_start_time":20,"distance":0.972700,"start_end_time":15,"id":16601,"encoded":"M@774h;ON;Fh35k4<d24g1Hl56W4>`4DS4H`33o42d4Lk51l3O_6Jh3:W3NX3=[2JP47c2Al4Oo1Jh4?g1>l1Jg13P4Jo53T6Ck6OT77k7?\\3?k4J\\25o49`20[3@`2=_2Hh2<W1=P3Bo11h3@_18P2?[1Jh8E_=6`3IW4O\\3<g4@\\25[3Il24g5M\\22W5OX2>g62\\22W5LT24g97P3;_7:\\30k51X29S35l","name":"Zar\u0119bek \u015Aredni \u2194 \u0141opuszna, Zar\u0119bek Ni\u017Cni"},"16600":{"end_start_time":85,"distance":3.296300,"start_end_time":50,"id":16600,"encoded":"M@BEAT;O@ME`53S48l3<S@X4Ac6=P3B[3Fh2Mg2I\\1Ao2Fl11S29hGg2G`1Ck3>d1MW5>\\1Lc5K`4BW7OP2AW6F\\2CS54\\8=o:Dd42c5@X16g2B`2>S:=h2>S2Mh5;k30X5>[4\\3KS14k6CW4>_2<W8S3=oBT5@k27X2D[OX3?k2L`3:W3E`9DS95TNc3FT4[43l1LPJ8dA`>E\\3Ik8<T7Cg22l5@kIc3NW22k3BoNc89c:d5;k1;g40g26c2Do1;g1N_@X1MW3?X1Hk49`2Jc56l4BW40T2Kk1Bd2MS8h38[22k2AW1MX22k4<P21c2JP1D_1?`2L_1:`70[2:\\59o24h74g5NP=6_@6h3AS3E`5Ek3<T20o1D`1Gc1=P5BS1CW2:[?c1Bcd21cBT32g19X2N[Gh6<[37T3=[2;P:6W28`49_32T53S6@T5>[7OP4Lk4=X8FS49`96[3>P6>k3;`3>c26P2Fk49`2I[23`3?W1Hl26cJl4@o:c6Og16S3:k4o5K_:d3Go1LPC[9\\2KW2;d1I_Jl2CgLh21c1?`4DS3KT22W19l2Jc13d1Lc18d1MW2FlOk2HT3h:NdA_4DTDc1LP2`24hC\\1;hM\\NP1:`8T1Cl2HhEl1Jh6l3@`12\\39d5d36`7_2<l;l2>hGS42d5c29T3T5BhEW37h2FW4=lIc29T12[5BT1Bc47P7`2>h@X1Cl1A\\37hF`2Mh>o3=\\K_39P8T4=X5P34dHo3E`1=c3:l9o26dDP1Eh2?\\2>h3O`33\\Nd1@hId1ET;X1Ml>[47d6W2Ed13d2?\\LT11T16h2B`","name":"Tomusiowa \u2194 Zar\u0119bek \u015Aredni"},"16599":{"end_start_time":40,"distance":2.089000,"start_end_time":40,"id":16599,"encoded":"M@O<GT;OH1D`1D`2=`2Al3KT29h29T1I`2:\\1=d25\\36`6;T1BP2ChM\\25\\Dd20\\OX4J\\2`3>d6k3Hd4\\5A`;X4C`Lg3B\\6W2Ch4\\37h:d3B\\6W3>d?c2<lP2G`8S42d3h37h2`42dA`64X@X6EhDd1=dC\\3:XJX5DPEX84P6X6I`8h52`:P2B`3h3:X@l5Id<`3CPNd7KX:d4H`3TBKh;l6K\\:c:@XM[4:h11S9:h1l56l1:`:6l=T82h:d>@\\Dc7Od9o6;T1CW58h27W;;h2<W87h2Jc67\\1=c3@`12o2ChGg67\\@k1Gd7=_<Od2I[70\\3:W2ChJW2Ch1Ao51XA_4?h1;g4@\\Ho5F`Ek36`OW3HP4[3=\\8g4:T12o3;`25[3@`3B[8Cd4Ac97P24S5BTGS40hHo2@d1@S3<hA_2;d8S1Bd@k1OT19W2>h8g18d6k25\\19k78`P3HdJX6CXEk5>\\2`63P14l76dGT=9P8g8HPH[6@h1l=L\\?d4Kd;X4FPGh3HPH\\DLT","name":"Hala Wolnica \u2194 Polana Gabrowska"},"16597":{"end_start_time":10,"distance":0.489200,"start_end_time":10,"id":16597,"encoded":"MA?;LP;N7;Md1K[1Hl1HW24h1;g2EP29g36`23_2Od2<W2Ch2?oOl27kHo1MW39c4J[:;k2Oc4=W2Oc45g3?k3Cc3NW42c41o3Cc55c3L[4=W34c24S12o49_P59[1X3E_3h3AS1;g1Lc1Ko","name":"Odej\u015Bcie na Stare Izbiska \u2194 Odej\u015Bcie na Stare Izbiska"},"16595":{"end_start_time":20,"distance":1.286300,"start_end_time":40,"id":16595,"encoded":"MADB:X;N:A0P:d53T10`6JTEl4E\\3S4:h17[2I\\1=cA`37SC[20[Ok1Eg37g2Ak4BW1;g14WBS?c2:o6l4IS3DX2I[14X3>c?P44_El70[3T38[Lh26cDP2AW;k1CW1<o10_2JcM[2Ec17o11S23_1Bc3Ik24g4GW3J_40S3Nk2Do3@_54o8?k4Ng:=S1;g64WDc46[1Ck30k29g26c2?[12o2<W1@g1D_2<k17o4BW30k9?S3;_5JW2Oc3;_3Hc1Jg39c=S28_26c2Cg34c2:oMo3@_13P3FS23`32g2@P3@_Lh2B_6l3=[21c30k39c35W45g2>S4E[2Fk2Jc4Oo1;g2KW1Eg3?k3Ag7N[9=k1HW16S","name":"Odej\u015Bcie \u015Bcie\u017Cki edukacyjnej \u2194 Odej\u015Bcie na Stare Izbiska"},"16326":{"end_start_time":115,"distance":7.445900,"start_end_time":160,"id":16326,"encoded":"MA=;Jd<1DF1P7:[1F\\84c24S6JS8S5OW3Ik70oGg51k10`69k2;P32S@W20o1Eg1Ao3B[2:[3:k1N_2=_25o1OS27k23_38[2=_2D[4Ac2Ak1>W30k=g3IW4\\3Kg1>kGS1D_d2Io3T3Fg2`33o19k61S3Hc6Hk48k82g23_7I[2G_;Ao3@_8KSBg8G[1MW66S14k18c1@SPF_34PA_9Ll1k4Ad2EP95h2L`=KT2JdAAX3g98l12o61T4@[72X4Gk5@X2Oc3>d2MS5A`:d46\\1D`24h77X39P3FT35X2@d3Nl1>X2G`NP3O`10_3:l1HWGh23_Mo2>g2AW4C_5:c66g30W@>WGh69WOW2:[1Lc12[3:kEX49_55d4=W62\\7G_4<d9Gk2Fl:3g3T79g22W2MS4Bk1K[7N[1N_;4k46o6OS4Eo2>S6;SJX74S44`=6_?d6F[1<[79S4Lk4=k6Ko=8o3Fg6=c1@S4>_2Hg;1g16h8Lo2<l?OW=S61SEX5MoA_61S1>W6Ko2AW1?_7:oJl3O_1MW1Eg35k6X6Hk3Go9H_3E_82S5c99_3?k=G[23_8DW64W<Io1F[9BW40g6Eg1Eg5<_K_;Hk2<k7Mg10_8IW1Og3O_Ho61S9\\5?c13c4?S2Do5;k8=[6:_2Oc29g3=o8Ik3g8J_1BP77k5;l?Ek79hC1o3IX:8g=T61SM[6<o7Io@Og6D_<>S;Eg?:c32g4BW1N_5K_3=[41[1N_1K[1<[3Cc;k40SIP2=_2@d2N[;LP>6o5?d5Jk1BP3G[3h4>_1F[5GS51W45g6:_9o53g18P37g@l25[14k1;g3L[8h42c8h4J[17o9Ng2Kk8Kg4BW?Jk3O_?Dc1Mk8GoM[77kIP5OW1F\\4C_4Nh7AW5Id50c6MX6Ck34d79SK`9Bk=S>LW27W>H_58SBDk2Hg77W4>_8O_4Ig=:W3<g6>W43W4Bk4IS1OS5;kMo5M[3Ag33o46[2<W88[1?_>LW2HSA2W4@[BIW43W>Kc3Lo>1o6>W==o52_@@S19W9=kOl9Jo1BP9?SM\\7:o53h6@S5Nd8Ik5BT7Ec3E`8L[=T98WM[71c1MW88[1@g5Ho2@c58S30k35W3Dk3?k1@g37g12[4Bk17[6>k3J_72k23_6<o1Oh4M_EX3ASNd6<o1<\\93W13P8DW19l5>o1JT3Ik2;P3Fg1<\\4;o:P2FWGT3IW1I`35W4H`1N_9:h<AW75\\4Dg27l1Hk5=h6l7=`13P47dNc61h33[2JPM[Lh17o=T2N[=S7Jc3h9Fc8S5;W4[52_A`3IW3T75[5d7MgK_6OgK_2B_K_1OgIcJk@kA_2:oHo3Ag1k73_GS45S9[2G_=S2IoNc","name":"Dolina Kamienicy, odej\u015Bcie szlaku spacerowego \u2194 Widok na zbocza Kud\u0142onia"},"16325":{"end_start_time":30,"distance":1.815100,"start_end_time":40,"id":16325,"encoded":"MA=;Jd<1DF1P30k7:[1;g1Mk1>k25[25[11g=5k1W2No1;S2Cg23_;2oC0S2<W50c5BS;=c38[3>c4BW22kDHo7KW2Oc2:[1@S1Hk1Ao3>c2Fk8Lo1F[:Ok1Hk6CW2FW4J[1@g5;k>[72WCo8<gGg4M_Gh51W2I\\9Kc42P:JW8T6EgDc:M[NP:0c:c5A_Nc5BS4[9GWMo4J[H[3>c14k51WGg9NS<_9FcHo1Og1k4Dg>o5A_1MW:8g1;S7AW1Ao46[21c4<cC[4=W7`4Ng7`72k=S49_1Jg8?k19k7AW11g86_22W94_Ho7Hg1X85W1I`7Ec3G\\:8S2B`5OW23`3;_1=d2?o;X2N[?c17o1GcBg5Ek?d","name":"Dolina Kamienicy, odej\u015Bcie szlaku spacerowego \u2194 Skrzy\u017Cowanie pod Stawie\u0144cem"},"16322":{"end_start_time":50,"distance":2.218500,"start_end_time":45,"id":16322,"encoded":"MA@E4P<1DHE\\>[6Ml2AX53T8Cd6Gd3?X5;l53T8Hd6k37h1Lc3>d3L[1ET1HW=g72W3Bo4=WBS3@_18P50c6BP2>g6A\\8g4;\\1GP2Hh47d1l6=P3IW50P1>l4NT6A\\:3TCIh<4T>Kd3B\\77l4Gl==\\2:\\1Eh2;P4\\2Ch38o3G\\85k4:h7HS45T96o58h4>_5Jl17o6@hP5Bh80X36`:8h3<h:8h31`4M`3NX2Mh=4d=g8>d6BP9KP=7T@@h<1P64l24S6Cl7_8FT8Lo44`66SLT37gNc3Hc38[29g1Ao3>c@k42cId57_=T5;WLT3>c2@d2Cg7JP28_5NdH\\5Ol55d6GdGT3IX17o4=X3B[38\\7HS19X6CW11T81_","name":"G\u00F3rska olszyna bagienna \u2194 Trusi\u00F3wka, odej\u015Bcie \u015Bcie\u017Cki edukacyjnej"},"16321":{"end_start_time":25,"distance":1.748900,"start_end_time":40,"id":16321,"encoded":"MAM?3\\<1N>E\\5>o97P3IW64l18c2;d38o4Ll3>c3Dl46[42d4:S50d4M_4E\\1MW20\\16g22l20o4AP2Jc8FT2Do:2`22W5GT19W4IT2?o:0P3Go9O\\40g98X1JS39d1A[22X1A[;l15_@k1?_1=c4Ac:c68c19l5BS2;d78_3Hd79g54\\4NS5C\\5?c5H\\8DW==\\7G_9Bl4<c42d41[NP35k1Eh61g6A\\3FS2=`9Dg93X3Hc2@d2<k19l2HS1k25oLS1JS1Og2=_27k27k5c1HWGh27W1N`80WA7X2Oc8MP66g<<l46[5@X3DW8Cd1CW3Kh38o8DX2D[:0P2;c<AX:c76P9[36`:c37h9o29TDc1F\\","name":"Rzeki, szlak niebieski \u2194 Nowa Polana"},"16159":{"end_start_time":15,"distance":0.841000,"start_end_time":15,"id":16159,"encoded":"MA??Nd;O:25h3S8=oNP6Ck26P<<W3DX<>g42P85W71d<:o89d;OS6K\\90S6BP7CS6Ld4Kc8@`2Ak7Ed3?k91\\8<SB0XFFk5M\\7Ec1GP37gIP4GW@k40S","name":"Paciepnica, odej\u015Bcie \u015Bcie\u017Cki edukacyjnej \u2194 Droga stokowa, rozej\u015Bcie szlak\u00F3w"},"16158":{"end_start_time":70,"distance":4.106900,"start_end_time":90,"id":16158,"encoded":"MA=>IP;O267lEN_1:Od4H_8FT74S@BP4DS<;d3FS74T<8_>>`51W51X1K[GT1I_6WIc20o3g2KWH\\2Ec3?X51W7Ed;Jg4NhDNc1=d9NS1JT9Kc2>h:Ho17\\:Lg4BXE0_3:X6:_8:X=5kI3T19ES28`54o>\\1>W6l1Bc4[20o=g1JSBDWHM_5c1@SP1HkGT2>g21P1N_3:l1Og2KX1ES2;P26c11h1EgDd24g7`20o;k59[14W:5c1=c8;_Gg48WBh2Kk1:`18c1N`P2EP16h5BT40h4;\\5=T45h47d58T2N\\3KT19X4=X7_2B`1MW1Eh30k63dCIg1HX3NW19l14W1HX1X1Jh18d4Ad5K`1;h5@X13d6<\\18P3Nl3Il5;X3<h2>h85X64X4=X32h3;`1=d32T5d1@h<_2>T1@g29h2?[2;P5Ok1LP9@o20\\70[28`5Mo6Bd;;g22l2Ak1GPLg1BPIP14l2>h6N`?0P1@T2JP27X2@d2CTIP2<X5c24hGS1Bd27k3HP5Dc48X6<[:OX:Ho3NX4Lk83\\;Eg2>h4>_27X6F[2Ed7Io14l5:c10`5LS14l6<[18d2<k10`Ek1Cl@l1Gd11T6BP24T2I\\=T<:\\40S87T3:W35lK_3FT4\\53h18P1LPJX26P2Fl2;d5M\\2CT4?h3IX1:`20\\3g2D\\35W21P37S1N`56W1Eh4DS1>l3?WId36_LS3<g1Ck1Ck2:o14k2HS1@g2Io12[4NS20[2:o27WLS30kEl2>g1;T1Eg1GdEW3:lP68P1=P1K\\6l1MXDP1Jhd1A\\8S4;\\H[7;P1;g:?d3<g8;`33[17\\>oNd1>k","name":"Olszowy Potok \u2194 Skrzy\u017Cowanie przy polanie Jaworzyna Por\u0119bska"},"16157":{"end_start_time":25,"distance":1.590500,"start_end_time":30,"id":16157,"encoded":"MAE=Gh;O348`3AS1=d6F[27X82gOl;@g65_G7S91[=7g39c6F[3Nk6CW1Jg5BS3G[?=SH6[26c25o39c1Bc51W@k8DW1:`4Ig5c4?g25o>E[;6g99_1JS6Ko5=S5@W3>c4NgJk3NW3T9;oJl7N[Jk5=g:P3:k11h66S48X4<cLT4Ng6X3AS1Bd2I[3Hd16g2>T5@W7Jd3Ik1Oh9GW4M`65_3O`3?W3Kh2=_48l;W45h","name":"Hucisko \u2194 Olszowy Potok"},"16151":{"end_start_time":15,"distance":0.786600,"start_end_time":15,"id":16151,"encoded":"MA?A2X<0=9Eh>\\K`Nd6l10`Bg4:h2HS5F`5Dc5=h70o4J\\6MW4J\\7N[4Fd80W:EX5A_?9\\5H[3E`62[1CX6Lc32T4C_5Bh4Gk@Bd<1c>C`;<o7D\\5BS4AP11g","name":"Brukowana Droga \u2194 Skrzy\u017Cowanie przy polanie Kopa"},"16148":{"end_start_time":5,"distance":0.381500,"start_end_time":15,"id":16148,"encoded":"MABA?X;O5;AT2OcBh2<W1>l1@g26PM[1OhH[1@h4:S=h17oEl1F[2Kl11SJX3Fg7`4;oEW5Lg2KX2L_Gh2MS26d2@c14l1CW12\\22k:d20[18P4GW3E`26cIP42cEl4LW9o","name":"Droga stokowa, rozej\u015Bcie szlak\u00F3w \u2194 Sza\u0142asisko"},"6709":{"end_start_time":20,"distance":1.465500,"start_end_time":25,"id":6709,"encoded":"MAM?3\\<1N>E\\27k48W1Gc2?[2;c2<k3Dk24S=DW7?o18cNcMo12o1Jg1D_4NS:3S@5_113[18c11g12[?c:4[2:o2MgGg22W12[1A[1ES1;S20[C;[11Nk27k3Mc2@c36_2?[24S2>gA_5Gg7`2?o?c2:o14k25o2>g9:S<4S24g26c2?o25o@Og<Io=?k<MS5LS71c2Do3Nk22W4Lk;F[15Hg1:_35k1@S2D[21c20o2Oc1@g3=o11g59[1@g","name":"Rzeki, szlak niebieski \u2194 Trusi\u00F3wka, mostek"},"16160":{"end_start_time":30,"distance":1.238900,"start_end_time":20,"id":16160,"encoded":"MABA?X;O5;AT22k5=g3O_5;k7:[?Ho2:o30k44_3S9?g40h:Dc21d4=k9o4;o2L_1Lc2>SNc4GW5d=:W25\\>H_M\\7:[OW4Gk<D[9E[38[2:[55c;l8:W35X3>c3S2<W3Ag26c8Bo43W5Bg6Ao6ES6:_35k4<c3=[7@c16g72W1>l;1g4;\\8?W18d5A_3NX60_21d56W1Ml3Bo1<[","name":"Droga stokowa, rozej\u015Bcie szlak\u00F3w \u2194 Olszowy Potok"},"5969":{"end_start_time":55,"distance":3.520600,"start_end_time":90,"id":5969,"encoded":"M@6J@\\;N5L1T5M\\;LP34P77l26P3CP6=d4:T9IT4=l9E\\C[9Ih16T?GT25o3KT1X2MT:d55P1A\\;4l2B`71d1>l71P1A[51X1Lc5=h>\\AFX18d1GP=h27l13P6ET5Ol;A\\5:P4Nh5GT42d2Ch40hJl4Ll1;T4Ihd3>POl1Ml17\\45h36`4C`1;h32T1Bd5IP30l53T6l4;\\3g5K`6W40TJk2FlIc4H`40g2I\\@W45T1JT1GdDd3IX1@T37h1Hl42d3G\\3MP3Md3MP4>`2:\\1=P2N\\;l2FX8S2;P:P35X1Oh2?\\22l2N\\1Jh2;dOl40T22l18d1k31`22k30X>o4C`;l5BhEk54\\Mo40T8g4BlBh3:l:P2Al8T2KXDP50P14l39P3T5A`Gg5;X@W39d1W47P3S23`DP3MP=h1:`BT7AX13P6<\\;l2Jd1k1Ml3S2Mh1k2AXOX33\\8S1F\\7`26P8g21PIc1F\\12o1LP1Fo2FX18c36`21c22l:c37h1I_3?lLg4E\\9[2AX3g27l9[2L`4[2<l6l29T?P4Bl1@h4AP8T5:d27k24h2<k39P1MW83\\3Kg37T;W22l;X1OT1l1HXOl21d23`1Ml11T24T5P2I\\P2HTHo3B\\Gg5>\\12o2JP8T3Dl=S3:l1D_1=P1k3HdK`3>P:P33\\?P1?`11h1:`16h1CX8g24h1l1BP3T21PEl20\\Gh39d16T2Ed?P4GX6W2:\\9o2;d8g1A\\@k2N\\3h41\\1<o1LP1?_4>`58g1Ld1=c68P16S27X1X5El?P7<X1<o53T34c3>POk37T>o21d2:o1Bd22k1Eh1K[16h34c2:\\31_","name":"Nowy Targ, Rob\u00F3w \u2194 Bukowina Obidowska"},"5880":{"end_start_time":55,"distance":3.649300,"start_end_time":90,"id":5880,"encoded":"M?@=6d<1J>7\\2=`>\\16h4\\17\\4\\<1P2Ak>Bl6Hk1@T5cLT9\\12\\JlM\\16h?PLT<`1F\\4\\20\\2_26d6k2Ch3FS11<T1<o>4`9[2HT4[1Jhc1CX6l1HX=T1Eh?d1Hl5?P:3T5C\\9GXH\\Lh16h14X11hJX10`?d1>X=h11T4\\1;h3S1:`DcH\\=gJXCoLh14WId19WJX1CWIP24SBh25[1OT9:gOl4IS@X2N[8h1D_;l1Eg>\\1AoEl1Og1=d45g1Eh3O_16h29S1?`2;c34P48k3AT4:S3HP4:S35X32g1D`1>kJlCo15`=gJl5cIPd1:`7`14X:dNPGTIPJXIdM\\ElNP1=P2<l13d2AX16h33\\11T31`1Bd5>\\1;h3E`18d2JP19X2@d4M`6HX37h2Ed31`1MXHE\\??PAEP:6X1N`JX1;T9\\LT1W16T7_1HX12[1Bd1=c16T1CkOl25oF`2=_GT3J_1Gd<<W1Gd<MSId5@W;X25[El25[C\\1F[Nd1?_19X1Fo1Bd1Ao23`Gg<4h11S5LT:c6MX;l4GX>\\2=`;l2;PK`3MP21P4;\\21d29hLh2?\\Nd92d1LP32h:P3DX8T3B\\5c1Hl2`1N`F`:8h5LT28`8S59\\9o60`26d1K\\A`K`3h14X4oA`8gH\\DcLT14WBh14WJX23_NP2Cg1BP3Ik1Oh4=k1OT4;[18d20o1Hl28_3>d4?g1CX21c13P14W19X12o18dBg14X4oOX2`GT8TLhH\\C\\Ol=h13P5P1:`1l1?`Ho5=h;W2OP4o2G`3S37Tc3>P7`2G`;X24T@X1@hEl1=dElGh10`A`NdP19l3S2EP<_K`7`K`;l40h1OT1>X<`34P?P2FX:PJl1XGT5PC\\=h10`H\\17\\1HX34d5A`Ol1HX1=PJX6F\\@l:;X@l27l?P2>T13d2?\\P74h1Lc6K\\24g6Jh2<k90T15_4DhA_4:TNc3Il2:o4Ll1A[8B\\16S48X1;g3Hd1Jg54\\12oOl?P30l3T53TP4Kd6l3HP?P3ATGh1=PGT1OT1;h34P29h3HP3E`23`2Ch27l2@d2>T4<d23`29h1F\\14l1F\\18P1:`JlM\\1Cl","name":"Huba \u2194 Pod Kotelnic\u0105"},"4202":{"end_start_time":75,"distance":4.766000,"start_end_time":80,"id":4202,"encoded":"M>N>;P<036FT5Ho;<\\2:[4J[5Mo82g82g7@c1>k1Bc9Jo9Ig1Gc1HW4@o76c<1cJA[72W?Lg47c65_7B_7G_GHcG0k4@o6ES3IW:Bg5JkNMo4BWH3W27k8E_1?_48k40S61g=Cc;JS6Gc63cM[M[GgMoIc16SLg19k1@g2?[16g22W1K[3;_26c49_25[3O_1Eg39c1A[2Hg1Gc2MS11g1Jg1:_1Mk1MW2>g22k2Cg2FW35W3O_4Gk45g50c5;W6K[5Nc7KW35k48W7>g9Jo4<c5Lg4<c5Gg3@_4GW3Fg4O[19k1D_25[2KW1I_2:[1Hk1Hk1Hk1?_22k1:_29SHo1Lc:c22k3g2D[2_6>k8T48k5P28_5c21c9o1@g@k1>WJk2<k1Eg15_14W1K[1N_1OS28_2Ak3>c1Jg2Jc1Bc32g18c36_12o3?W1<o5?c2?o:>[30W:>o3G[7>g46o7L_3FS4Ng43k29g3HcP55c1Cl;Hk4KP7=_18PBFg61S8g1Bd?c1Cl19k42d4;[66T4NS3:XHKc>NhEHk=7T46o2FX2Io2Kl99_E@h64k?Dd:IcI?d9NgH1\\6CW?JX34c5BT2KW50P5F_6?`4Ng3Nl1C6S>8XAL_4<P5Dc26d37S2OP2L_4KP1Jg79hBS28`A_5ElGgA9h11gINP16g9LX40gE>l2@c93X34c;=P72WD5d3KgE6T16S7@P","name":"Nowa Bia\u0142a, skrzy\u017Cowanie \u2194 Trybsz"},"5878":{"end_start_time":110,"distance":6.807200,"start_end_time":155,"id":5878,"encoded":"M?9JOh<2@3AP81`57`80X5;l:EX74h9H`5;l7B`3<T@l7`9=X39P24h;I_>?h4:h?LT6Jh?Dd6@T=3\\5Dd@W;Hl<`>>`IPLHd5K`B8\\JX34P5JXCNh2EP8<TGT79hK_5Lh2:[89P9ISO8P70oE>l77kFJP80WH8l4DS?:dGS1<\\1ES3>P5LS8J`10_1N`19k4H`@W<I\\1Mk;OT9[1Hl4;[@7\\3CcGB\\2<W79h48X5H[7Ch<Hg5Bh5>[=;`2@c4?h1>l78`5K`15`3h6Ld;k>5T9Gl:4\\16h87T2L`1GPBhNd;X1F\\34P2>T77l1MX8B\\2OdG8\\2I\\90h43X66T2I\\6HX1kBT2_3Ah40g11h3NW1Hl3AgGh3Bo6JT2Fk50d5@k:Id6<o>>`42c>E\\1;S1Oh38o4J\\4Ll1ET5IP16S92P4M_51X11g9>`P;Ml1Hk4;\\:P1HX18P1BP3>d21dNP7Al=h3AT:P1D`22l2>T4M`26P38\\34P1BP5>\\22l3NXP3FT1:`36`2>T3AT3E`3HP2Ch3<h28`2>h3Ah2;d1Cl2<XGh5NP1Og3HP1;g9<P:1k45T29g8<T3>c3Cd1;g7=`3S4BX19k3<hLg5Dd31`4?h5@X2Fl9IT2I\\;3dLh4H`1Jh4Ad2Mh3Hd7?\\1Eh5K`3O`7?\\49`96\\El55d@l49`Mo4=X1Og3:l6k2I\\11g3>d2Ec1OT4<c28`4E[47P54[4;\\37g2:\\22k2Fl3Hc4?h2Jc3?X1;g36`6W27l2@c14l34c19X2@c2EP11g6LPJl6A\\3h36`=g3IX19k43X13P92P5IP:Id7I\\30X24h3NX@l5GT6l5M\\NP7FX11h6N`Jl=>d16g8@`2Hh9LX6l4Ll4Ih35l7<l51l92P55P7D\\61h89P;GP97P9Bl7OP42d5H\\5Ol6JT47P37h66TCo4DTDP4O\\3Kh3Il4GX4=X2@d2G`3>d2<X5=h1Jh74T4J\\90h53T4C`3Cd2Mh2B`2<l32T9o2G`2Cg72X=T58TNd5OX3Kh8DXOl3ATJk3J`>o32T2=`23`48l34P4GX4J\\54\\2@dDP","name":"Maniowy \u2194 Polana Kud\u00F3w"},"5875":{"end_start_time":15,"distance":0.914000,"start_end_time":15,"id":5875,"encoded":"M?NM3d<3@OF\\d68P2_=FT11gA4T9\\:5P<`>>`Ol9Bl14l4GX2FXCITBh;9X17[7N\\13dC=l=S40h3T3G\\16g7Ed2No;F\\6;g>E\\5@W@BP10`72X24h82T8h9=l6W3IlGh=5X7_3E`","name":"Jaworzyny Ochotnickie \u2194 Skrzy\u017Cowanie pod Lubaniem"},"5872":{"end_start_time":30,"distance":1.690500,"start_end_time":30,"id":5872,"encoded":"M@28:l<1A;5d5?c46o3=o21c1N_11S20oA_2No2_2<k?d20o=h3Lo2JP:BS;6hH[14X3Ik9Ih2Oc92d27k9Ad2=_??P1Mk55P21c2D\\2Oc2JP17[31`5c45hDd63P17\\5?d;X32T=T:4\\3g@4X1Bd97Pd6BP1HW<Od15_B0X:c:?d=S6JT23_7D\\1=c5H\\1Ao6GP33o78`FEcLAh3AS4@\\2:[5A`27W::d=S1;hOk6Ld16S4O\\3g40T6k4?h8h34d1l2JP@X33\\=T1Cl:c2JdJW6K\\Bg8HP1?`3NX1Bd6;h1Gd;8d1<\\45h;X3G\\Bg8J`Dc55P17[90h:c68d1@S4>`","name":"Studzionki \u2194 Pod Kotelnic\u0105"},"10270":{"end_start_time":45,"distance":2.899200,"start_end_time":70,"id":10270,"encoded":"M@<LIl<271DTNd1JS8h2MS10_9;[5c4;o1W54[NP5HoLh45S2@d9C_38\\92c41\\:JW2Ch8B[1=d3Mc1@T2MS1=P1Lc8T;k8:l8Hc3O`4Ig34P4:g2KX53S13d32g2L`6Bc1OT30W29T1Jg3>P2AW4Ih2<k4Dh34c3Cd3B[JlJW2@d25[2G`11S2OdIc39dLS6Ld=S22X5d1LP3T34P3h56X=h13P8SOX=S18d19k11h1OgIP2?[1BP74S1N`3Kg6?`67o29T34c5Bh9BW2CT3=o32T2Do1>XJWDP;W:?P2>S87h2Cg5OX16S4:T29g58T4;o60`5Dc2Al18c2ChF_81`1Eh4<P9\\Id1XJ4l47c39PLS30X28_2G`3?W66T;2o53T4?S22X16S::d2<k63P1Og22X1;SA4h2G_64l2Jc4FP2G_2?\\Lg8G\\=g9o14k1Og2Ec3Kg56k62o5EW46o29g2HS4;o3=[8=[H[7Jc5c4Ng;X18c16h12o5Ol14l75\\26P2Hh1Fo30l35k4FP9@[=?lFAk4J\\=1_85lI9o1Jh6<[3Dl>H_3@`78_2>h78_","name":"Ochotnica G\u00F3rna, skrzy\u017Cowanie \u2194 Schronisko Gorcza\u0144ska Chata (dawniej Hawiarska Koliba)"},"16155":{"end_start_time":115,"distance":6.401900,"start_end_time":125,"id":16155,"encoded":"MAD?Lh;OOAK\\53S4DS1CW2HS1>k32S1Fo4DSOk25[19W2FW17o25[<9S:1k3NW2B_5=g2Io74S1Fo53gBS63cIP5Mo12o2KW1A[8L[7HS9;o;4k=NW9;o8E_5BS88o1I_5@k8g:Bg3:l79gM\\7Hg9[8Kg16S7Kk22W33o1A[34c24S65_6@g1Fo2<WH[1ES@W1Jg5P2:o;l16S<`M[El13c15`@W1@h6k68P1>l9Ih8g40h1F[4<P=S5>\\14X3G\\C[8Fh33[46\\A_46\\1OS4Bl2MS41\\A_7<l26c:Dd3@_3CP2?o28`3Dk2<X:A_1Ml:@W36`:Nc3AT7KW2MT5:c1Jh18c1;h6l1;T1Eh17\\5OX1LP>8X1K\\4KP27l3DXGT30XBS4Kd9\\3?lId3@`2:\\3Dl2HT18P39PMo7B`3Hc6D`4Dg5:P2Ec26PJk2;dP2Od1Eh2Mh42d2KX4J\\5@l5=T4?T1@T4AP29h5?d2>T2MT11h8IlLS5;l@W6JTJk5BT4Gk;JT;6S54\\2=_87h20o55d1l3E`6k3Kh20o14l36_9\\5LS14l<JcM\\<=_@k>0g:c14CkNd>0S=S8Kg;X2:o1D`1Ko23`=g4LXJk6Gd=S7Al1@T41\\;l32T11h6Ml5JX6=P5NP;1T8Il55P2Fl2KX1Bd;;T4@o8>P2Cg5;XCo3?X18P7D\\6;T43X49`48X2<X3J`?d3>d30k2KX5Ic2@d:Ho38\\>J[2>T;Ao19X<AWP<N[11T=8[4?T113o29h6MW2I\\77W:d3B[LS30k2B_11g3:WGh8DW2Jd=<S6F\\4Eo37h2Do@k2Oc22k8L[>7c46o8Bo5F_9:g59[69W7<k7N[4H_6@S31_8FS12o5H[6X62[1@T51W?9\\127cEX40S4[@1S13P30k25\\3O_<@P=@_47P5A_68P6Fo4Gl1Hk:=T>oD=h9Oo@3P6MW;HX41[35l3L[LT2KkDd76cHo:<_1?_:1kLS=3[6X>;[?d96o8T85WDP;Jg8h7AWJW69W1Ao5>[2B_3L[3Cc1;g9;o1:`","name":"Potasznia, rozej\u015Bcie szlaku spacerowego \u2194 Skrzy\u017Cowanie szlak\u00F3w"},"5669":{"end_start_time":45,"distance":2.853900,"start_end_time":65,"id":5669,"encoded":"MB>6>d;O2KNl14W1Og53g?A_3E_8=[41[7Fk3?W4BW1:_19W3AS5Bg2;c5:c13c27W1<[1F[1CW1:_1JSGS1Jg8h2Io13P1HWA_1Mk1I_3<g45S2=_1Og62o21c28_;k1OS3h27k18P19W8T2L_1<o53g@W1Hk;l:;k3=\\45g3?l2?[4APNc1Gd16g32TEk1HX1Mk4M`2=_4:T48W5<`4Oo5>\\4>_2Hh5Co2I\\56W45h@2o?A`>Dg@I`3@_2AX2Oc1>X<>S4=X3E_1Cl43k2@P9<c76d39c1Oh2Oc=g3@_1<[3Lo37g48k4:S57_67[33o3=o2FW1K[2<kJW18c4\\4@oBh1JSGS17[13c8?k>5S17[1<o1A[Lg8<g2AW56W1<[6MWH[?=g<`24g<`22WIP3FS29h8=o5Nd2Hg3B\\4Lk73`4@o6HX5Ho69l3IW5OX5C[<<XLS2N\\F_77XJk34dM[2Fl:F_AJd73_>0h31_4KP2>g25\\8@_5K`2;c25\\1>k22X20o3<T21c47d1@g2Fl1OS26d2<k1I`58g2Hh7;c2Fl29S11TJkGhDc1Ld1Fo6Gd1;S2?\\1:_1Eh1HW11h1;S3S6Ko3FS31_1Ao23_Gg5F_Lg","name":"Nied\u017Awied\u017A \u2194 Orkan\u00F3wka, kapliczka"},"31":{"end_start_time":25,"distance":1.510900,"start_end_time":25,"id":31,"encoded":"M?081X<06MMT1Bc2D\\2:o3KT35k57`@8cI@X4Jo:@X93kAJd3L[98X;JgOJh1Gc4FP>1o15JP96[I:d66S?6X4:g:DP35W7HT9[Gh7:[<I\\8AS>Nh@<oN5P1:_52`7_3E`3T23`1Jh;BdH\\8>P6k=6`1:`BNl2_>5T","name":"Nowa Biala \u2194 Krempachy"},"8544":{"end_start_time":115,"distance":4.821400,"start_end_time":75,"id":8544,"encoded":"M?K3LX<3MOJdNc4Fc:c2=_1;T3O_1@T3Ag16T2Jc1F\\4E[2<X8?k38\\AMS1;h3BoNP2KW=T4E[1Hk2G_1Fo5Lg18c5GS1=c3NW2I[35W7;c58S4Oo5;W9Ng=O_<<WCKc1F[29S1Mk1K[:9[5M[3Mc4?g4E[5Ok4Oo2Jc>IS8Go6CW5A_58g69W80k5M[20[1I_2Io3Fg3>c3E_47c37g8@_64W16SP5Ho2Ed33[1HX4Gkd2MgBS6;S3>c96o46[7No6F[69W4J[3Dk2Oc4Ig3Fg3Ik39c32S6<o2?[57_39c2>g60_3Cc6;S5@W48W49_2N[1<o4>_1Fo4<c?c3Dk1<o2N[21c2Mg17o3GoBh5GS2;P5K_3;`4@[Ol5<_10_4Oo46o48W26c5Ok29g5JW1Eg9<c12o43kNc4=W1l4:g16h2@cP2Mg24g22k1Gc2Mg1<o3FS17o3NW=g4?g1k2Ak8S3;_;k39c1l25o>o32SOk1K[Ho98k<_3<g14X;2o81`2Jc24h2<WBh2CSBT53g1N`5Mo50d4>_3Cd40g1Ml34c3h64kEk58g2N[3Dk37g59o5Dc29g3>c1N_3NW47c9O[7?o87g79S:;k2<W34c2:[4Ac1<[34c1Hk1>k1OS1;g;7[72k=Dk70[3Cc1Ko66S1Bc1EgJk2Io16S7Ak=T4NS@l3Go4o4:S@k3J_Lh3@_Lh2Oc1@T59o3O`59o50d30k3Cd4Ac5OX9C_9KP6CW5;X8Kg57`6Mk7CT5JW5>\\24g1;h2G_Ol21c=T3@_d43k19W37g2`4DSA_5EW20o2Fk1Ao2N[29S1Og1K[1@S2HS5Bg:JW2Oc3O_2@c4:g2>g56W1OS49_14W3<g11S86_12o69kMo8AgH[@9W=SBIk13c5OW25[16S36_Ho8Go1;g91o3Hc4=W2<k25o21c1K[1MW21c15_Ic1lA_;kCo10_","name":"Luba\u0144, Ruiny bac\u00F3wki \u2194 Prze\u0142\u0119cz Snozka"},"16054":{"end_start_time":1,"distance":0.036400,"start_end_time":1,"id":16054,"encoded":"MAG;Ch<1FNC`3g2?\\Ol45T8T2KX","name":"Trusi\u00F3wka \u2194 Trusi\u00F3wka, mostek"},"5444":{"end_start_time":15,"distance":1.139500,"start_end_time":25,"id":5444,"encoded":"MA2I0h;OE37X6Jg:8S<5[@OS5M[:Ic3Hc6Fo6=c:2_12o1Og34c2Do2Fk2Ak46[2Kk21c15_20[Nc3J_1k2AW@l41[2>h3E_1ET3Cc18d32S13dCo13dC[29h19k42dM[2Hh1D_2?\\2Ak52`14k2Ed16S31`1Bc4GlBg2<XF_3DXGS4:TLS1BP14k2Ch1?_2<X1<o2MTBS2@P5c1OT3g1K\\1l2I\\F`45h?d32T5P14l5c1Jhd3G\\P2?\\4[30l4[2Hh1W2FX3h3;`5d2D\\1X1I`P24h;k2I\\8g29hA_2L`9o2Ed<_39P4[4>`8S2MhF_34POW35X@k1F\\19W2Fl11g10`12[21P12o1?`Ho1;TJkH\\LS;lMo2`2Hg12\\1ES:d25oc2Ec2_DcP2Do4o20oNd","name":"Hala Turbacz \u2194 Schronisko PTTK Turbacz, rozej\u015Bcie szlak\u00F3w"},"16140":{"end_start_time":10,"distance":0.707100,"start_end_time":15,"id":16140,"encoded":"M@D5=P;OJ@:d3FT6k2>hGg16h6l3Md13d30l:P2>T?c21PEW27X;k1Ml>o2OdDP2;P1X21dCo2D\\12o27X=S5C\\8g2EdLS2;PBg2Al;k3NX;k20\\:d37T1Hl2Fl2;P1OTEl2@d@l4DTBS2I\\@k21P8g3B\\=h5OXLh53h27l50d37h26P21d2KX2Hh2EP1LP18P1=dBh1BP1Ld3Hd22X53TJX1@T12\\1>X16h31`Id69l","name":"Polana Kolasikowa \u2194 Polana \u017Bubrowisko"},"5874":{"end_start_time":15,"distance":0.719700,"start_end_time":15,"id":5874,"encoded":"M?O7Gd<3;0GT1k52`12o>8X3:W?4\\Gg82h=g3MPP4H`=SA1P1K\\=@`2_70\\=S71PP:1lLS>E\\10_=J`2_>;\\2B_11DX1<[8Cd","name":"Morgi \u2194 Jaworzyny Ochotnickie"},"5443":{"end_start_time":10,"distance":0.615500,"start_end_time":15,"id":5443,"encoded":"MA5D8h;OD02l4Lk2;d3;_2EP2Do38\\15_2>T1Gc4IT<IoCAP4C_3HdOk1A\\3FS1Ml3;_>o2Jc17\\16S19X1OS32h1:_1@T18c19l45S48l3Go>\\3Nk37g64W>[1EgBS4@[31_5Bg2N[9@o77k41[2:[","name":"Skrzy\u017Cowanie pod Czo\u0142em Turbacza \u2194 Hala Turbacz"},"113":{"end_start_time":15,"distance":0.989900,"start_end_time":15,"id":113,"encoded":"M@C68h<3:IKh3@`1>Jh:d:1X3T6Ml1k2JP3S4C`Ek6@h17[7=`Mo5GTH[5EX;k4M`6k4Ih1WF;P9[8Kh7_6Eh4o:@l:d5GhBT53hM\\52`1MX8L\\A`2@d29h:Dd15`3CP2@d60`2;d52`1OT54\\1ET4IT1A\\5BTId2Hh2@d;EhLT45h3DX@N`","name":"Ochotnica Dolna, stacja benzynowa \u2194 Ochotnica Dolna"},"5412":{"end_start_time":100,"distance":6.078400,"start_end_time":180,"id":5412,"encoded":"M@>70`<52@Cl68d60_4?h4Kc4\\3L[3<h<2k1;T49_2I\\6F[8h69W1OS8Bo34P@4W:c>BW13c5?c9o1@g42c=KS<3_@7[83[7>S14k4C_JW3>c19W5>[59[;Gc36_9o21c26d1=cP1Jg5;X20o7AX1OS7KX1CW4@\\29g3J_3FS39c4Kc44_4Dg3O_2CS3Ag37S3@_45S2Fk91o4J[58S41[50c2Cg48W1AoOW4[A_15_=gOk9[1Jg22k3h3@_6lA_3<g9[1K[10_6N_Lg58S:d4H_1:`59[1l51W1HW7CS1Eg6CWMo37g2Cg59[2CS67[1CW4@[19W2Mg2<W34c5BS52_5=g6Og34c6Gc1CW5:c30k36_3:k1>k4IS2Cg1Ko26c4[49_A`34cA`5A_DP59oEX3IkBT68c@W4J[Gg44_;k4O[=T6K[JW4>_1Ao4=W1<o24g3;_55c33o66S3Hc4Kc30W36_2MS2Ak1Hk6k11g19l1D_6JT>o2HhDc37h1F[3@`1<o5P3Fg31_1<[3Dk1F[54[1Jg4@[43k:Ok2@c59[37S8Nk2Fk6A[2;c70[2<k;=c?c6@S3T4NgM[69W28_3;_6:_4<c33[1Lc2?[42c1Ck37g32S8Nk2FW60_3Ik5LS4>_7No1MW3Fg81_;Jg34c=IW20o6>W2=_42c3Hc7I[32S3G[3Cc30k5@W16g3?k2Jc3:k2Kk2EcJk4<c2;P2NoId;1g47d6Ao27l4Bk?P2@c11S22W2Hg2Jc6<o3NW55c2Do6ES37S<B_2Mg:Ok2>g65_2KW48W4Ig5?c3Bo3G[2:o1?_6Ko19W72k2Kk6Lc53g4Oo60_3?k36_3:W41o32g24g2:[20o1>W2B_:d2Kk1Gd2Ec8h2>g1A[22k2?[19W1ES1ES14k25o2@c5Lg2<W5;k31_6Lc1Bc5MoMo3Lo4Ig<;c2;c40S25[5@WNc3KgOk5BS19W68c1Mk6OS;W89cDd:8S6kNc=S17[EW3Ik3G[<<W36_7FW2>g8FgMo3Fg1JS4GW2N[6D_5Nc<9g4Ig;:_=S79S4\\54[1X5A_H[37g8S<_1F[1MW21c19W3NW38[3Ik4GW2Mg6HW30k64W3E_83[2FW7?o39c<Mg2?[9Bk16S3>c1<[2L_18c2Ak1Lc3@_1Jg25o37g2No8<g5Nc88o3Hc3Ik1Jg4DS4?g46o6Ao1Og1>k17[Ho1<o2;c16S2Mg2Do2Do23_Dc3Lo1Cl2Mg14l20[8h3;_6l48WP4?g21PM[6k36_1>l35kOl2G_17oBSGgHo2Ak?c7CS1F[64W39c6N_3B[43W4>_4Ng3O_6ESLS44_1A[17o1?_1D_<4S>H_12[1Fo@k28_9[4<cP7CS=T3J_JX40g","name":"Tylmanowa \u2194 \u015Aredni Gro\u0144"},"16150":{"end_start_time":55,"distance":2.498100,"start_end_time":35,"id":16150,"encoded":"MA??Nd;O:25hGT1MX20\\13P4>`3S5GhIc83\\K`4;\\OX36`Co=J`:Co5?P19k58T?c5@l27l45h38\\1@T3=\\3DX=;`3E`HKP3DX125h40THNh1;SCDh2AkEMX26c4FP=2S>6\\6Hk86`;MW6JT2G_2G`1Hk3AT8T3DX2EP1JT32T9\\<1d33o?IP45S6Ml68c6@h5Lg6Bd85W3NX9O[4Bl=@_3<T=L[32h=Dk2<X9Jo1@T9:S?P9=kEk:Ok3IX155o1k>BW=T69WDP5DcLT25[60`?5c2>T9Fc2;P?6W23`8FS7EdJJS43X;7o","name":"Paciepnica, odej\u015Bcie \u015Bcie\u017Cki edukacyjnej \u2194 Potok Turbacz, odej\u015Bcie \u015Bcie\u017Cki edukacyjnej"},"16131":{"end_start_time":25,"distance":1.238000,"start_end_time":20,"id":16131,"encoded":"MA8F2T;N@:Ol1>l19l1MX32h18P3Hd13P5GT47d<>T76P107l4E\\@=P1Hl:El7@PI5d9>`10JP@3d1EAT29h40T2CT7Mh3<T5H\\4Kd;4X5IP:BT2:\\3O`1>l3J`2JP6=d4Gl9:T3?X;@h1;T4KdK`4C`1>X29T2Fl24h2KX2@P1>l2:\\","name":"Polana Pudziska \u2194 Polana Suhora"},"16103":{"end_start_time":90,"distance":3.230300,"start_end_time":55,"id":16103,"encoded":"MAFHMP;OBMOd5K_1BP69k1Bd9Dg4<d88o@l3E_@l5Jk@k4Lk2>T4:g5d5Ho3T4Ac2Jc40S22k4=W1Ko1MW34c@k4C_25\\1Og47P11T4<PH\\3DX2:[52`4Kc5>\\4?S6@h1Ko6:`3Ag4Gl26c2Mh3<g87T<Oc5=h;=c4<P3Hc1@h2B_C\\4FcJX6@SA_6<[1N_4C_3Ik2Mg1Jg3O_1F[6<[10_8Lo12\\8<S21d43W2D\\3O_2CT65_1=d7KW?P;6g1;g>8W1k9:SLT5H[1MX3IW5?d4?g2Fl14k2CT23_5LhMo3:l=S3@`NP38\\2G`5:P:c5Lh2@d5=hP5Dd1Hk5@X2>S31`3=o2KX45g17\\4<c1Jh5H[3CP58S2B`3Kg2@d8FS1=d58S25\\7N[H\\70o6X50c14l6CW29h6CWLh;=c@l:OkDP8IkLg96o35k85W2Hg90S19k66S1=c49_1Jg2Mg8h4C_8h4J[3AS<Hg29g4J[2?o2@c36_6<[3>c5EW4Eo6JS21c4M_3IW9NS44_4J[3E_6<[2KW2Jc2@c42c2KW3>c2KW3E_17[5OW1=c54[2<W50c2MS3L[2@c6<[50c7AW5M[7Do3G[3O_63c1Ko5F_Jk;N_7AW4BW1Lc2Fk27W7Jc:Ic","name":"Pod Turbaczykiem \u2194 Odej\u015Bcie \u015Bcie\u017Cki edukacyjnej"},"4242":{"end_start_time":55,"distance":2.283500,"start_end_time":35,"id":4242,"encoded":"M>0ONh;NNGN`1F\\2G`2G`8L\\3@`7N\\H\\1;h37T63P1>X4M`13P4@\\1BP34d1OT3>d34d4<d3;`3:l7G`C4`2JP7CT21d6<\\38\\9Gl4O\\>H`2<l9Nh3h50d1k54\\1=c5A`11S5;XEl5K`19l49`1Cl3B\\6l3Ah9LX1@Cd1OT7;PNd4M`Lh6?`8g:Lh4[7;P1l4?h6l66T6X4M`4\\3Hd>o2@dNc2Ch8h5K`El4J\\6k38\\21c6F\\29g5Dd19k3L\\8h5:d4[4DTLS4IhF_34P2I[7@d30k9NT2>S91\\19k57`14k47dLS55dJk55d6W4GXGS7Al18c6D`1>k5Ol22W6A\\Jk2>T1<[4C`2?[8=\\1Gc66T15_29T1Ko6@TC[1EhH[16h1HX6>lGAg>8XOWH\\17o13d1<[1;h2I[2Jd7G_7L`1Ck2@P8TM\\;l1LP5dLT23`1F0T4\\1GP5P1;T6lOl1<\\BgH\\8gIP6kEX6W1>l9o","name":"Pod Kotelnic\u0105 \u2194 Bia\u0142ka Tatrza\u0144ska"},"30":{"end_start_time":60,"distance":3.302500,"start_end_time":55,"id":30,"encoded":"M>DA@X<3A0L`>[2EPBS?El3S2D\\9[3CPC[2=`EW1Oh1I_3Il15_1N`1D_1Gd1?_1;h6CW45h6ES3Il2Cg1=d3=[14l21c6l37S9[2KWLS46o2Ec2@c2?o3>c3Lo=g13dGS2>h6k1<\\d14l:d12\\Id16h2HT3?lNcDP3AS3S2<W2@c1A[11S2IoK_:A_OX2OcBT46oP2CgGg6MW36_5K_21c2HS1Eg27k27k3Ik5M[1Hk2Hg3<g3KgK_30X1@g3?l1Bc2AX1F[28`1Eg1F\\2Mg3<T2N[1MX9oC\\<_?P>o:d?c6X@WP?c4[>[9o=S>[21cDP1>WBT23_El2EcLTCJ[3FT3IkEX<8_29T<<W2:\\1MW=T2Fk10`27k14l20o1=d2Ec2@P4=W4DT>>_?H\\2:[27l2=_1JT1HW15`2?[10`28_A`4Ig?P98WC\\28_6X37SJX1GcEl1Ko15`1@g19l1Jg1Gd3B[40h34c3IX27W2;d2<W27l::c8AT3Ik3<h2N[32h30W3IX1MW2KX22W3DX1F[34P26c4M`2Ak6Jh4GW>8l1N_6N`17o56l2KW<N\\1N_8B\\1>W68d13c41\\1=c42d17o35X48k9Bl23_4?T2<k5:d1;g3ATOW37h@k2;PCo3?l6k30l1k1CX4\\4Ad?d3G\\15`4NT1JT4Ih2=`51X:0dBG\\51l9>`10`1N`6>X<>T22X5DdH\\61T;l3>P3h1K\\5c36`8S1MX=g17\\EW1F\\1Lc3AT1Fo3AT4Fc:>\\28_6=d1CW53T2CS;@T1;S57`1Ck42P4:S6JT6=c68dNcM\\45S5;X37S62\\2I[5=T4Lk7Fl99`3Nl","name":"Niedzica-Zamek \u2194 Sromowce Wy\u017Cne"},"10":{"end_start_time":50,"distance":2.395500,"start_end_time":45,"id":10,"encoded":"M>?>KX<143@T1A[14X2N[IP4JoLS3Dk41o5F_5BS?Co5=S1I_3h1;S6;g:;WK:[2Hg4GW29g30k2=_12[1CWJl21c2D\\3<g7:\\4BW=NX2Do7N\\2CS5LT4DS5>\\A1c@;T4Lk5Nd3?W4M`2Do2Ch2<k=h1ES13c33[1CW33oDc3?W@k3Go2<k47c4Fc20o3L[Lg5:c17[3B[2Oc4<c3?WCo40g6X34c18d3Go6l33o1Lc96o49_51k3Go24O_6MXG:W22X8Dk9o6CW18d6F[26P53g=h96[1Eg36_=T32gOl5@k6Og3B[18c3NW32S3:kIc34c1MW4Lk30k58g4:S2:[EW6=c1CW6Bc6k6@g37T2>g1LP5Nc6?`2HSId","name":"Dursztyn \u2194 \u0141apsze Wy\u017Cne"},"84":{"end_start_time":75,"distance":2.902800,"start_end_time":45,"id":84,"encoded":"MAA29X<11A?h3G[2?\\45S2FX40g1CX21c?c22WJk1JgP18cOl1Og3;`1Jg29h1CW3:l1CW22l4@[39d2Mg43X1F[34dLS19l1BcLT45g1W17[4o10_1:_2?[2Ak1>k2Ec2Do35kOW1N_1Gc5M[1;S1Fo25oEk2<k4;[26c1Ck1MW@k1OS8h1@g1>l1?_2Fl23_3G\\2?[2Ed1=cLT2HS6l21cBT20o1@h1>k24hM[24hHo1=dDP2;P1<\\24h26d2=`1Ml2@P:P1LdGg1Oh1>kEl23_1k5M[>o:8g5Bg1BcA_16gJk3FS4?g10_EW20[JX18c:c44_43W4<c1=c1Ko2?oOkd11g14X5c38\\Jl3Cd6l2AlK_1Ld2Fk28`4GW4Ad39c2@d4Gk4O\\5Ok5Jl6K[6GP3;_4C`32g4BX3Ik3Fh6HW41\\3O_49`66g4Fd4>_4C`60_4H`30k43X12o2Mh>\\4>`27l2Mh2>T3<h3>P2AX53h29T48X@l3?l=T2@dNP14l24h;X26d17[2L`5JW2JP37g2<l46o3=\\7Ak8CP7>g53T8NW2B`4LW?d2=_6l2Mg6l4Jo3;`4<c3Nl17o2G`GS3Il@l4FP19X30l2=`20\\3<T1HX61h2=`99`1JT2D\\8h1>XJl13P29hDc2;d14W1<\\22kGh46o6l5@W1Ko3:kNc2D[:P1@S1Eh2`2Ch1<\\1Gd32h34d4FP24h76d18P6?`2;P3AT6k3O`?d2FXEXd35l3Fg2EP9Ig5:d5@W20\\4Ng2<l53S26P3Ik26d38[2Fl2Do23`2?[29hEW1LP:d1?`1=d=T2AlP1K\\?P1K\\1=d","name":"Gorc Troszacki \u2194 Skrzy\u017Cowanie pod Stawie\u0144cem"},"4239":{"end_start_time":65,"distance":3.172200,"start_end_time":50,"id":4239,"encoded":"M=MFNT;N>E4h3Md11T3;`1Ld79h3@`3=\\Nd=0l>\\F`4[93XGh5JlP51XIc5=T;k8B\\7`>?TH[17\\4o48XLh62\\2@P6Ml21d65`2;P6;T4:T9Nh6@h2JP1Eh3Dl11h4H`8h2Ed=g2D\\1ES52`2Mg3Nl26c:M\\3?W43lNc6ClJk98lDc42dBg47P1MW:6l5@k7<l4E[5Bh2Kk8Ah32g3B\\1Ao4?T75o22X2Ak60`7<k;l>o9=l<7k8Dl8;_JXK_2Fl2?o73`7Kk:5d:C[5d6W3:l32S8MP8Mc56l40S7Fl4FcA`=S:?P7Io;l8g4=l2Hg3AT27W74h4?g24T1;S4AP56k2?\\2KWId:3T5d2<X21P6GP2Hh3HP3?X32h4O\\1=P2I\\34d4C`74h2;d85l2CTI?dA`:1X9[98XK_6ET1<o7Ch;W26P13c6HlOk:7`1W2Fl6W:Nd1<o9BX1F[=KT:cG1`F_@ET1>WM3X29SE;h1>k>8X19W3J`33o53T","name":"Grze\u015Bk\u00F3w Wierch \u2194 Le\u015Bnica"},"60":{"end_start_time":55,"distance":2.930700,"start_end_time":50,"id":60,"encoded":"M>:@@\\<3NCAX8g5<`2?\\8=\\16h68dOX48l1K\\47P45h9<P10`1LP56X69l5=h69X47d4:h29T39d2HT69lOX22X11h27l1=P2Jd11T2:\\d1GP7_12\\Dc1Eh1Ao2AXOW1Ld5c3<hEX32h2G`6Eh2?\\68dK`2JP17\\5?PNP67\\4\\7@P7_5;X>o3NlCo44`Nc3@`13c36`16g2JPGS1HX3@_7KlK_4?T7`46\\2`1:`F`51lM\\6Cl1N`6MX29T3<T32T35l7L`8CP92d93X;6h:M\\40h3IX1OT39P3?l8FT18d2Al2I\\2Ch1=c5?d21c5:d6Bc>BX1@g4IT10_37T16g4GlEW4;\\11S9Fd8S3G\\Ic;9X24g;K\\3>c;=P4Gk9;\\69W9Ad15Ec1;4P61S4M`92c5Bh<Cg7KX4Kc2D\\D:c8Il50c3G\\3AS5?P2?[5=h1:_3Kh18c5>\\Dc74h=h8Nl18d5IP1Ml5=T3:l68P72l78`9NT6I`16TBT60`2Mh4;\\18d22X=T41\\GT8:X1<\\Gh1l;l1l6>X14l8KT1N`4?TId5NP1D`<`3TEX5P4<d12\\26dA`Id6l","name":"Sromowce Wy\u017Cne \u2194 Sromowce Wy\u017Cne, K\u0105ty"},"16076":{"end_start_time":70,"distance":3.518900,"start_end_time":80,"id":16076,"encoded":"MAF>IX;ODC;T2L`7OP1k;5`5=g4<d51k3:X6Hk45h:Dc64X6Og1ET53S38\\4NS4Nh38o2Od3E_2Jd2KWP27k1Eg53S53g74S5OW4=W3;_2Do37g2G_13c6I_1MW4BW3=[79S5d;9W1Bc3Kg3E_3IkJk4DS<`3Mc33o2Oc34c3Kg2<k4LkGS5Dc14l6K[1BP3G[11g21c17[2CS1@g2Fk14l2KW5@l3>c9@\\1Ck8E`1OS6JT3B[98l3J_4Nh33o2N\\2FkNP4?gJk2MS34c1MW30k1Ao26c1I_Bg35W2L`38[3IX3:kNc2Jc2G_2;cLS45SLT5;k29h6:_Gh5Lg22l55c11h8Hc3<h8Hc6ET5H[1Eh23_1>l5;k1Oh63c6k5@W1Hk5Jk1Eg6OgJk35k2:[5GS3=o4IS1MW:Ho2CS5=g1>k<7W77W55c29g80k22k46[Gg:>o14l6>W37g4=k1ES4=W32S3IW30k5Ho3Ag55c3L[4O[2Ec1=c3S1:_NPMo2@P20o3=\\1HW21d1Gc8T1@SJk1N_2Jc2MS30k4:g26c40gOk2No3@_2JcMo33o3h2>g10`32g1>l;2od4GW17\\3;_>o8O_15_47c3S67o1;g66g1K[2Do6W6<[P3IWBg91[1Ao5@W1Ao3E_3S2Hg@k3?k2FW4?g48k3G[5;k2MS61g4Eo85k3>c51k2N[3@_","name":"Polana Turbaczyk \u2194 Skrzy\u017Cowanie pod Czo\u0142em Turbacza"},"16059":{"end_start_time":5,"distance":0.401300,"start_end_time":10,"id":16059,"encoded":"MA@E4P<1DHE\\4NS1k3=[@k>O[4Ig45g@k3:kBh70o4Ad1K[M\\=O_4J\\4:S1CX3DW:d72k2_","name":"G\u00F3rska olszyna bagienna \u2194 Papie\u017C\u00F3wka"},"16152":{"end_start_time":3,"distance":0.215400,"start_end_time":5,"id":16152,"encoded":"MAED5\\;OOL@P6Bc1ET3L[7`47cEW25o11g3=[2<W7MS4C_81_3J_","name":"Konina, polana Potasznia \u2194 Potasznia, rozej\u015Bcie szlaku spacerowego"},"4201":{"end_start_time":10,"distance":0.551000,"start_end_time":10,"id":4201,"encoded":"M?081X<06MMT2=_4H_4Eo97c2Ak50c?EkNGS;:_H3k95gGAS;JgEJS","name":"Nowa Biala \u2194 Nowa Bia\u0142a, skrzy\u017Cowanie"},"3467":{"end_start_time":90,"distance":6.159700,"start_end_time":140,"id":3467,"encoded":"M?GO7d;O<2<T5?d4Fd11T1>X:?P<3`Nd11T4[4M`<`21d@X30X3T21P1k25\\2Hg:6l1MW8CP22k6BP2?\\?M\\66TCIh87T4GX34d4FP1A\\4:T<`12\\3@`60`1@T1K\\1JT1D`2Mh1Gd8Ah;l84P2>T5Id1>k83\\4=k39d1Ko5:P30k2KX26c2G`37g4;\\2@c25\\14k2Mh3S3<T1?`45h1OT4Ll37h:6l5A`38\\23`2@d1Hl4?hGT29h11h6=P6Ml4J\\56l2AX3>d9E\\2?\\2CT:c30X19k56X3Dk2MTC[:5d1X3?X@W20\\Gg51X2N[32h2?[4FP52_4M`9;o4Ll6N_;7\\FAk1Ld35W3;`49_3Kh2>S4DT2<k85l2B_:Jl7Ec72X20[3HP23_8Md6@S80l53S6Gd2Jc61T1X41\\1Eg3L\\40g6BP:=S1LP3L[14l39c23`:Mo1A\\37S1;T1Eg1>X2I[1F\\1Og21dDP25\\2@d2;PF`2HTCo1BP16S1ET2FW1LP5Ho1:`57_14X2?o2CT2G_3FT=g3L\\DP4Fd2Fl@<\\8FhBMd;Oh@CX;?`79h5LT20\\H\\2EPLg4E\\4O[7Hh40g5LT4IS3DX13c47PJl55P4\\71dMo5GT6X91\\26P9M`1>X5EX1=d62\\30X22X1=P2EP32T2JP4<d2L`5Id15`3E`Nc43X31_9Ad13c9DT7`8KT13P5?P1<\\58h3<T4KP43X1>l1@h=T99`2`@@T2>h1:`1W2Kl3S4@\\M[=:l64W5=T1Hk;OT3DX3?XGg2;PBT2Ch1:`77l5F`13P5C\\2:\\9:T3NX49`9<d:8h4;\\57`35l26d45T14l31`@k49`3S44`1;T5Dd43X3Fh47d1Jh24T1F\\1Gd32h2?\\4?h22l13d@l3E`1MX3Cd2AX2FX2EP25\\2?\\3<T5:P1A\\2AX3Cd:5d2L`3G\\62\\7JP20\\3:X5F`;LP1>X2;P6=d7<l1LP13P5?d35l8HP32T4DT3T40T@l3<h1Hl30X4C`27l2G`27X=g1@T1>k2CT3Hc2>T17o2Fl3g6Ml7Hh5Dd57`5K`3Hd47P2<l3<hDP3Il1;S2I\\1Lc29hJk22l1@g24T2>g19X2Mg11T6Jg6>X6Og5@X3Ag3?X1>k3?X3;_4;\\69W2CT6=c2JP3Hc2?\\1N_1JT2Cg2CT3>c3E`5H[1?`5LS1@T42c27l1Og2>T14k2G`1;g2CTEW2FX1Ml2@d1>l2EP31_2Od1Og45TK_5>\\Lg","name":"Ostrowsko \u2194 Tomusiowa"},"6882":{"end_start_time":60,"distance":3.716500,"start_end_time":60,"id":6882,"encoded":"M?>@Hl<1;E5X5Jl:Dc2JP4E[2N\\46o6N`8J_:EX=3[8Dl:Ek9GX<0o6Gd8;_18P1@g>[3G[15_<CS5K_91[87S:Gg2Hg6CWGg46o8T6>k1X83o4[4@[12[6Ck1=c8B[Ek6<o3T7Do9[8;_Gh3O_El53g?d65_6k4=kLS4LW9[LS4[>[2D[7KW9DSO9kMo4BW3S3CcDd5Ic1Ld@A[?d3<g17\\16SIP1=c>\\2Ak1HXAKk1Oh;Ck3L\\G=o24h4>_2EdOk<`4[3?l25\\38\\2CT2G`@l2Hh20[2D\\3Hc1Gd4O[1A\\8Fg=T87Sd6CW8h65_Ol70o14X8?W1Ml=B[32h@2[3KTB3o2@P<Ec6k8Lo2Oc>NS1Gc=J_;k;BcDd@JS1LP85Wc:@W2FX@X1CXP11T19W1;h45S18d37S1Jh2Ec29h32S1@h2Ec13d14W1?`@W26d6X5@X18P47P11T2EP6k36`Co3CdMo21P:P30X14l21P=h1JhNc2:\\22k3DX51W2Al5<_1Eh2@c1@h11S77X2<k2Hh?P5Bh1BP32T14l32TGh53h3Kh5OX42d42d34d1D`1Bd21d3Hd2Mh54\\2KX26P2EP1A\\1HX9\\d3<T1I`C[F`1:_3TK_1F\\<Jc3IX102k1Bd=Go1>lB0W13P19CkLhOBc4\\51k;l:Co3S35kCo14k","name":"D\u0119bno \u2194 Harklowa"},"16146":{"end_start_time":5,"distance":0.330800,"start_end_time":5,"id":16146,"encoded":"MAF36d;NIMFlM[1;S1Og1Ao4GW2Ak17[1;S2I[45g1Mk2Mg5?c3J_A5[7FW2>S9o51W@l4=W3g54[2Oc","name":"Skrzy\u017Cowanie przy polanie Jaworzyna Por\u0119bska \u2194 Polana Tobo\u0142\u00F3w"},"6846":{"end_start_time":5,"distance":0.243900,"start_end_time":5,"id":6846,"encoded":"M?MJMl<3MLLX14W?d14k19l14W34dLS1CX3AS3NX2Io3Nl32g5IdJW1LPOW3?X1Ck8@`19W3CPBS@W17[1?_37gJlLg2`1;S@X2FWIP","name":"Luba\u0144 \u2194 Baza namiotowa Luba\u0144"},"123":{"end_start_time":55,"distance":3.050500,"start_end_time":65,"id":123,"encoded":"M@6HFl<11GLT2Cg:P3:k@k29S;k3O_1Ko3Ag2Mg4?S4E[7MS6A[3:k1;g4BW17o2N[2AlDc3CdLT4J\\1OT8<T3L\\9Gl14l71P4\\7N\\4[71P1=c88\\1;g66T21c2Mh76c6F\\4Eo4DT5K_<;d48k5Nd32g2KX7Cg53T7HS3Dl6Ao52`1Fo29T1>k1LP1A[45h2MS7<X1A[13d28_=T1Lc@W13c13c2B_24S2Kk8g1OS10`Gg11T;k1MlP40T4\\4?hBg3G\\27W7Mh@k3<TP21dA`2Al1ET4@\\2=`3Md6Eh7D\\5:d69X26d3O`1Jh1>l2=`2Jd2;d32h41\\24h3DX@X35X4\\25\\5P2CT1;T5IdJl1JTOl19XBhGTIPIP24h37T67\\41\\7B`3Cd94`13P4M`?c30l1Og31`2Ak1Ld25[2EP17[5Nd1CW3IX55c8CP3Cc8:l1HW11T46oNd:Ek6Jh8AS3?l2Mg1K\\4Kc43X5?c6Jh26c6GdGg8AT1;S32h9[2Kl8S53h6l3CP15`3FTNP4KP11T<0\\1F\\58h2JP3Ah33\\6;TF`37hBh2B`K`3Il@k4H`3g3;`P62\\14W85l5d5Id4[33\\Nc2Ch25[4C`17[4Fd5d1N`14l3DlDP29h6X3E`>[54\\18c85X8S7MTOk62\\C[6;T12o2>h1Ck37T1@S56l1CW42d3:k5A`3B[9=l19W5OX1<o9KP2<k6HX33[62\\F_1Eh5BS4<d2AW1A\\1Jg:P3Cc10_GgF_13cBS12[>oC[@W2FW2;c","name":"Prze\u0142\u0119cz Knurowska \u2194 Studzionki"},"16153":{"end_start_time":30,"distance":2.118100,"start_end_time":55,"id":16153,"encoded":"MAD?Lh;OOAK\\7B_5JXAEc?9\\ILS<I\\8E_8>d10>g1N@P2Kk6N`2<W:Bh4;[8Fh44_5A`5OW5K`67o71P4=W6<\\5BS65`5;k58T3Cc5K`40S9Nh2Do7:\\1;S8MP6X8CP14l:Lh1Hl9DT1OT5>\\1OT58T8h70\\1;g7>T14k6?`Ek71P:d6MXEl;3d17\\6I`2Fl:8h35l7>T1OT6F\\El71PLS8FT6W;9lCo7HT1?_74T14k7:\\Lg8B\\5;WE=P4H_@A\\48k>4`48k7Kl4Dg5C\\","name":"Potasznia, rozej\u015Bcie szlaku spacerowego \u2194 Brukowana Droga"},"75":{"end_start_time":45,"distance":2.621100,"start_end_time":50,"id":75,"encoded":"M@GJAT;NO<D\\39d2B`26d2Hh1LP32h21P4KP25\\5BTDP33\\4o3@`GS1HlGS22lF_4@\\Co4M`:c64X9o67\\8S5;l8g6CX1;h;JhJX8CP1Ld8CP3MP53h6X97PM\\77X1ET57`3Il:;l22X6K\\;lNP1>l3FT3<T6MlOl2Kl1HX72X;l2G`F`3:XM\\6>XNd51X8h63d1D`CNh16T8?XBT90h>o9Gl<`2KX3g7B`?c4>`25[7:\\M[42P1:_4?h1OS6A\\1F[7:\\13c:Id1W40h1Ao:@X19W3IX1Jg5=T1A[8:XHo89P1Gc>8X27W92P4:S:C\\3E_;@h2>g4Gl2Do5F`1ES7EPA_7:\\@W8Dl6l6CXJl57`5P2N\\>o8FT7`4:h2KXC2PNd43XDP1Ml37h5H\\6?`:3T81`:@X;?`AFl1HX3=\\1A\\3DX?P21d>\\:JX=T22l11T2Jd2Ed3@`4:h3DX5JX3O`43X1Cl4M`:P6N`1GP21POX34P2@P1HX1JT4<d71P23`1JT31`1@h3<h2Ed3<h3Il2<X46\\2=`4<d30l49`2<l3Hd1D`2N\\18P3Il10`4C`","name":"Bukowina Miejska \u2194 Wisielak\u00F3wka"},"8542":{"end_start_time":10,"distance":0.537500,"start_end_time":20,"id":8542,"encoded":"M?NCCX<3J48X9[;3P5d:OlF`2L`2_2;d:c2Fl3h2HTJl4BlM\\6:`9\\2HhBg5K`6k3L\\13c5El2>S?6lK_32h?c5<`2FW6Cl1Mk3L\\24g3:lHo3=\\1W4DhCo49`1A[2G`2G_1=P1Mk2<lMoJl3B[1?`2;c2_","name":"Pod Lubaniem, odej\u015Bcie szlaku \u017C\u00F3\u0142tego \u2194 Luba\u0144"},"4259":{"end_start_time":75,"distance":3.396800,"start_end_time":55,"id":4259,"encoded":"M=KMFX;OKE9T4?TIc2<X3g4O\\1l4Ih8T4AdMo23`Co27XHo3Cd2B_1Hl24g2:\\4>_2MT4Oo2<X1HW2MTOk3DX>o2EPGg2KX21c32T3;_2FX43k26P1<o3AhJW6=d19W39P3h62\\C\\5?d15`66T1Bd32T2_2CTJk3AT3T5M\\1;h3O`1OT2AX1Ml4Ad52`30l5=T2D\\4<d4Ad5Bh1>X1MX2Ed2KX4?T71d30l1K\\3?l9\\5<`>o9C`NP2CT1?`47P4>`3B\\1N`30l8h3HP8g30XJX5:d2FX54\\32T8Md3MP8Hd56X89P4M`47P2CT78`5?P2L`32T2AX4Gl14l1Ml27X2_2G`P2>T1Oh30X1Eh2Kl11h2OdJk3AhCo3:l1>l2EP4C`26P3>d36`1Hl39P1Hl32T14l1F\\11h1;T1=P19l21d2EP18P4AdF_4;\\Dd3Kh1Bd4APBT7@PMo41\\8g41\\P70\\27X67\\2FX7=`3>P2MT;k1Ml14W1BP24S3Kh5Jk1LP11S21d6X4IT19X3Ah;l4?T1?_3<T2_1Bd>\\21dEX2AX1K\\74T2@P65`3>P::P1K\\76d21d:4\\P4IT21P4FdGh<Kl21d4LX5d34dGh4?T19l74T1N`3B\\27X4H`13d3?l27X3<h27X34d8h3:X21d4J\\4>`7Ed7Ch3Cd59\\74h9Dh9AP;F\\54\\56X6=P9?T49`5El1K\\26d34d7@d1>l64X1l4:T41\\4Gl27l2Kl11h1;hGhIPBTBTH\\C\\","name":"Czarna G\u00F3ra (Litwinka) \u2194 Trybsz"},"2468":{"end_start_time":65,"distance":3.090300,"start_end_time":55,"id":2468,"encoded":"M>A7Ih<2;?=d2HS3Dk43W5H[33o4=W2I[2Kk68c44_1Bc3AgHo3L[1I_32g;Ck88o4Gk5OW3=o65_3B[4GW1Hk3Dk29S61S3Ik7AW37g3E_3L[3<g;CkDNc17[3E_;k4M_6MWBGo1<o2Ec1F[19k20[18PGS1>l1@S82h29g5A`2AW50d13c11h26c3g3?W1Og1@S11S2<W5M[1N_44_2Cg2>S6Bc49_3=o49_76c<9S61g;9k83[>8W95gBIk43k5A_1>W1Eg3B[45g3Cc5=g2FW:A_6W3L[;XD=gDd149k<_3Lo2<k62[2B_9Lk1Eg7>g1l25oNP2?o1>l2:[2;d2FW3?X64kOl2Jc1X2FW3Kg4?g48W3>c17[1>k30k<9g19W26c11g@k15_3S:8g48X42c3>P;5_85l3E_Jl3;_NP4M_3O`6Ao4=X35k11h?F_2EcC2c7>h=G[DdCAc1F\\:A_Nd67[8S9=W4Ig5@W6OS64k8Dk17oDcOW=S<Ec4Ih7=_2Al9@o3NW","name":"Prze\u0142\u0119cz Przes\u0142a \u2194 \u0141apsze Ni\u017Cne"},"16149":{"end_start_time":10,"distance":0.574000,"start_end_time":10,"id":16149,"encoded":"MA@DFX;O663TLS3DX3Ik5F`45S53h4Ig6MX38[3G\\3:k5<`20o77X32S4@\\3@_30l35W31`1@g51X16S39P4:S98l2>g:1l19W47PHo5Ol@W6;T8h3O`A`65`K`5F`1ET4<dK`2Ed1;h6GP1I`1MX","name":"Sza\u0142asisko \u2194 Paciepnica, odej\u015Bcie \u015Bcie\u017Cki edukacyjnej"},"142":{"end_start_time":60,"distance":3.605200,"start_end_time":95,"id":142,"encoded":"M@G5Al<1JHCX4o2D[Ic18c10_4o2CgLT8IW39P3KSBT2<W7`1@S12o19W1JS4M_9@o24S2Do1Ko17oF_9[18c=T1A[Jl1Lc8T18c@W33o1CW1;S1HW5c22W11T58S=T2Io32h54o37h85k18P50c3Dl7No25\\3Ag5F`95g3O`4Kc18d24g3Hd3>c3E`2=_35X2@c6Jh:>o5LT6?_50d4DS46\\47c1N`2Hg2Al2<k5BT37g8L\\57`4IT1LP4Ll1>l3Hd2Od4E\\59\\30X2?\\1N`22l62\\4?h6;h5JX4>`35l2Od1Eh1MX;l1>l12o?P3CcM\\;;g4\\59[>\\4>_10`4J[1OT3E_2;d4@[23`6?_15`24g18P2Oc17\\4Ac2Jd7CS1JT3Mc2FX2Jc2Od1Lc2HT1;g2?\\Co3AT32g30l3@_2Mh2Cg3G\\2Kk48l2@c40h2Cg3Ah34c1HlOk1:`Ho30l1Bc3G\\17o5DP1Og=7h69W5<`34c9Ih5Ok2:\\M[47d@k4J\\P5@l8h2MT19l3HP2Mh4BX5C\\2I\\4IT4:h7;d3O`9?T1Jh48l2D\\48l>:T:=h3<TGg5?d20o3FT2@c2FX3E_2>T3>c1F\\5C[El6;SK`8:WLg4>_9[51WEW52_;X2CgNd2Mg42d4E[4?T34c3B\\2No3AT36_3AT4J[9>`9?S23`1Lc2L`Ho3HdHo2AX23_32T3Kg2>T29g2EPJk21P@k1BP1<o12\\Ek2N\\2@c44`3J_3B\\4:g37T26c2OP1>k1K\\22kDP14k1Ml1X17\\Id1JT16g1GP14k1I`Ek21P3S20\\16g31`2;c2Kl44_3>d4>_3?l4:g1N`36_1<\\39c28`1HkNPOk8T8g2Kl16g2AX1CW3E`34c19X1@g23`1@g1CX2>g3:l6Og1OT4Jo5Lh<D[1Jh5?cM\\2EcLT1Gc","name":"Schronisko Gorcza\u0144ska Chata (dawniej Hawiarska Koliba) \u2194 Polana Przys\u0142op Dolny"},"1261":{"end_start_time":85,"distance":5.240900,"start_end_time":85,"id":1261,"encoded":"M>MI1h;O1>MP>\\4J[4\\19W16h;;S1Bd?1W2OdKIo3KT107W29TAKW16h99_5DP18Lg23`BG[1=P=AS15`?DcIP?@WLhAIo;l>IS@l>Ng9\\82g4\\9LW6k36_JW80W1;S:3S?c7CgDc4KcDc3=o30k8Bo1N_42c1Ck2CS1JS2:o2N[2?o6JS4Ng3Go30W38[37S29g2I[2@c48W5JW9J[4=k7MS2CS53S1Bc40g19W4@o16S76cH[4GkJW50c2I[A:[19k87gLS6Eg4o3NW1WJk;l7>S?d8NW13P97c1Cl9J[8h50c;k79g8S>oMo33o1Fo3@_6Eg:GS4C_7Cg=<SF2k75o<3_3Kg6@S24g3?k7L_<Hg64W9Ig13c1Hk34c69k3O_9IS4DS=>c19k5C[Ho=ASH[=NW4Gk1=LS1>k8B[2No9?S2L_7I[3Hc9@[1>k9Fc6<[23Hg1Hk@Bc30W>Ig3NW>1[6ESDF_7KkH?g6:_BKS5CoAN[1CW6;S31_;Og1<[3=[13c2:[16S1Ck2Oc2Jc11S12o1<[1Gc19W2Ec1F[59oLg30W27W7?[1Hk3<g37S35W5Nc5>[1K[27WF_1;gBS1:_3S1Jg2`1N_;X1@S2MT:@k14X6@g;X<Mg2Cg2<k=9c;Lc1Bc1=c17o2CS=g18c8S1Lc1?`@kOlK_1Jh2?o1A\\2;c@l11S7Hh?MoLT2:[2_1ES2_1CW<_1<o17o22k2Fk<_26c=S19kA_1CWJW65_5A_7Do7<k2>h46o23`48k41o;<[23_68c2Kk5A_2Ec43k2;c4:S9GW16FS2No<8_17[5OW10_5Co36_D1W","name":"Gronk\u00F3w \u2194 Szaflary"},"86":{"end_start_time":160,"distance":8.385500,"start_end_time":165,"id":86,"encoded":"MAAN7P<4188`19k1KoLS1:_26c3Hc4Lk96o<HgFHg=IWL3o22kEW7Io5;W1Fo1CW7>S6N_NcM[33[3:W32S38o1@g16S17[Mo11SJW33[14k?c1W3=[;kBSd5=S9\\4LW16g3<g9o55c:P3?k1Bd2MS2Jd2FW4Ad57_>BX5BS87T24g6D`1=c3B\\2?o1BP1Jg1k1<o1JS10_36_20o4LW38[:@k2CS78_25o54[BS3DkBg30k12[9[11SCoNc12o19k1Gc1>W2<k6ES=G[5<_:4o4LW9IS2=_48W26c3?k30W50c2B_3Nk29g28_1Mk1I_10_11S?cMo5c11S1kHo3h17[BT1AoGTMo3E`2>S2Jd16S8@`2;c14lMoA`GS?P1=c3h1<[3g1;SBS1<[F_F_1>k1A[4Eo35k4Oo2@c7=_1Hk33[1Ck3Hc2G_4Lk6:_1=c1Gc1Mk19W1>k@W1N_1k1KoIP23_17\\2:[18P17o40g3:W24S2@cCo32g18P2HgGg19kGh79g33o19kP46o14W3?W1<o41oNP1Eg8@_Ic7Hg11S;A[Nc3AS1I_35k23_6MkBS2MS16g2MS1Gc2MS22W51k17o3?W2Fk5EW35W83[2G_53S20[2CS4o1;g1>W?3S27W83[11g96oEW;;S2_26c<_1OgH[2CS14W35W1>W3>c1I_53gM[3Ag25o<Mg1Eg87S6k35k5d3?kC\\3<S1Cl5Nc2<X7?[El3J_4\\2Ak>[3IWNc30k3Go9>_2KW6Gc4?g92c24S3Ag58g64k3NW4?g38o4J[72k<<W44_4J[5?c27W59o1HX4BW43X3GoLT3NW25\\3Kg42d37S1Ml20o1HX1<[48XEk3;`25o4BX2Io3KT4LW54\\82S6@T?;W=9P4DS75\\35W6JT1Bc2Od3NW55d7AW;7\\2No4Gl53S39P4LW8:l3Dk45T27W1;h2No8T40S39P1Mk1>X40S1Eh3NW2?\\95g<Od:3g5Ol3?W18P67[1HX32gLT2KW2Ch4;[2B`4BW71d6D_6JT2KW1Hl57_:P2I[Ek2KW2Kk40SJk4Ng3S5:c21d4Ng15_4@o12o38[@l<0o5Dd3NWDP>0S30k35kMo30WP>4_3J`5F_21P38[3S2I[GT3:W7>T4Eo8=\\17[2I\\3Ik2Mg6@g:8g35k6=c2Do2HS6;g49_6>k7D[39c72W4:S:Gg4IS7?[1@S3>cGg70o1@S6I_1Ck69W14k8?k2>g4<c5H[90S76c6JS6Ko51W2B_2Cg1Ao3O_3Ag7L_3>c8Ag46o>H_14k4C_JW2MgA`2Cg1F\\Gg22XGh6=d3Hd1HlGTId31_2Hg>>_1>W5NcOk3O_4=k:BgA_4C_A`6MW>o3B[P37g1=d20[21Pd2<X1Ld4:T4O\\34d47P1I`=SA`30kCo6CW2`6JS4o8O_1:_:0c1@g:EW3Kg:Dc24S89c1MW5EW2=_IcCAc<1dLg36_10_33o1Bc4Gk38[;A[>4_<OPE5_>C`G2S?M\\9:S6=d15No11CP97c85X70[1A\\85k16SLG[5JlIc5P4DS8g@Lc11g?7_NcC6[2EP88[2:o72k40T96o4KP;4W5Gh4:g27l","name":"Kamienica \u2194 Ochotnica Dolna"},"16085":{"end_start_time":5,"distance":0.270800,"start_end_time":5,"id":16085,"encoded":"M@64KX<06I2h15`3T2@d2`2Fl15_4E\\3J_C5TD0c39d32g21PJk2KlIc3?X14W","name":"Pocz\u0105tek \u015Bcie\u017Cki edukacyjnej \"Z \u0141opusznej na Jank\u00F3wki\" \u2194 Ch\u0142apkowa"},"16606":{"end_start_time":3,"distance":0.190400,"start_end_time":5,"id":16606,"encoded":"MADA1d;O64AT12o2Od:H[D1l5Co8HP3KS7Al","name":"Ober\u00F3wka, odej\u015Bcie \u015Bcie\u017Cki edukacyjnej \u2194 Potok Turbacz, odej\u015Bcie \u015Bcie\u017Cki edukacyjnej"},"8":{"end_start_time":30,"distance":1.889800,"start_end_time":30,"id":8,"encoded":"M>NCMT<3I9I\\10_1GP67o:BT33[93XLg2;P1@g42d8T2CT15_Bh=h1MlJk31`2KW3?X10_1Eh2_1Eh=T19lDdGh31`11T1:_3<h1Eg35X27k32T3=o28`5=S1Ml2Ak1Hl4@o2L`14k1:`3:W4:T66S;;h48W9?h61S<Hh5Ok@BP34c7:\\1CW6LP35W9=l<0oO@h6>WCC`K_2;d53gCLX4JoEMl1Lc5JX1>k3>P>?SKHT>6[J:`50c9FP;JSAKX3Ik4BlF2k11:X<Ec@=P2Kk2Ed1=c2<X","name":"Czorsztyn \u2194 Prze\u0142\u0119cz Osice"},"120":{"end_start_time":40,"distance":2.615500,"start_end_time":50,"id":120,"encoded":"MB86=d;NE;F\\:;k:c4Fc19k1A[F_1CWF_56k2:o28_8S1Hk6k2<k13d80k40h2:o1;h3McIP1?_3g1Hk4[Jk2_=Cc1Eh4Fc<_1Eg2D\\53S84P67o::P13c1CX46o64l37S4?T22W1@h2>SJl32S;W70o1@g2:o4\\2CS16T20o25\\3Go5=h27W45T>[22l4[29T7`1CX1:`66T5P2>h;k2EdGg20\\Gg1=d2;c3Md6Mk8O`85k8:l1I_25\\Jk11TF_K`1CW2JP3<g6Ml26c42P25o3>d24g2I\\37g33\\2L_24h5M[4>`3;_2I\\2;c2Hh25o34d2D[4BX3AS6@T1Eg2@d29S2Al3?W29h<Mg5JX56k21d3IW12\\<FW2B`4GW1N`3:W2Kl2FW38\\2>g3E`1Ko3Hd1MW5El19k3Kh1Ko5BT9oGT11S29h1:_24h?cDPJW10`1Lc1Eh1JS11h::c2L`2>g1=d2G_2@PDcId2=_32T3NW64l2B_5?d3AS9E\\3Mc6Oh2HS5DP5IcB2h2Ak4Ih7=_;3d66S82T43k4C`3<S3Il2?o36`3>c3Nl39c5Bh2D[5LT37S9=l2Jc69X3=o4LX5A_59\\6Ao2L`79S28`3G[1GP2=_1MX","name":"Por\u0119ba Wielka \u2194 Koninki"},"16101":{"end_start_time":2,"distance":0.109000,"start_end_time":2,"id":16101,"encoded":"MAE5MT;O4<9h1Oh1Fo38\\6;S2FX:Bg36`45S","name":"Ober\u00F3wka \u2194 Odej\u015Bcie \u015Bcie\u017Cki edukacyjnej"},"5666":{"end_start_time":25,"distance":1.254000,"start_end_time":20,"id":5666,"encoded":"MAN=Md;O:8Bh2L_6MW32g8AS2Ec6<[56W:@k43k6HW2?o3;_46o4?g2Ec44_3NW7Ak5OW65_9:g<;c20[1;g2;cEk12o1WM[11g1l29g5A`A:o27l4E[1;T19k1<\\32g1F\\62[1D`6CW14l5H[=T3Kg=S7>SOk;K[BS57_13c7:[14W59[13c9;o2Fk<D[12o81_9\\;OSLg38o18c27W2Oc2=_2N[7Oc6k@WEk27k1ES57_P20o?d48k=T47c8h57_;k6;S54oJ6gBS2N[","name":"Koninki, Zagronie \u2194 Koninki, skrzy\u017Cowanie"},"10436":{"end_start_time":2,"distance":0.088800,"start_end_time":2,"id":10436,"encoded":"M@NL3l;OG1=lIP15`;l17\\1XOl;X8B\\5F`Bg1<\\9o","name":"Schronisko PTTK Turbacz \u2194 Schronisko PTTK Turbacz, rozej\u015Bcie szlak\u00F3w"},"74":{"end_start_time":165,"distance":6.859900,"start_end_time":105,"id":74,"encoded":"MA7CIX<2688l;4kDP31_26P35W3B\\21c1;T2<k1?`5Ok1Eh8Lo1?`58S1D`26c5P5H[1>k59[:P4BWNc2=_2_4<cDP2N[19k64k1ET72W;l2B_Jl6Og5:P45S3AT80k31`38o1k63cHo3=o?d3Mc1F\\3FgGh36_1N`3AS16T32S1Ld1<o1Ml4Kc6Cl3L[4Bl4;[5BT3=o3>d4Eo39d3>c1Oh29S24T16S1K\\1?_2;P2Fk2Hh2>S2<X4NS4;\\5M[4<P2=_2Al2N[1Hl35W23`32g3J`4Ng5?d:7_<=`5Jk;=d2Oc52`23_2Ed25o22l6@g=9d2N[7L`C[1;h3Ik<;d2>g61T3@_5Lh3=[51l20[5EX7?o??P35k7HT41o;1T1Gc4M`1<[6>X2?[7I\\22W53T25o2JP2Ec2B`1OS1Oh17o2Fl;W3>d14l44`1;h2Od18P3@`3S7MTBg6K\\1A[89P2?o77X3AS7>T3DW8AT3=o82T4IS:3h78_8HP27k5>\\2@c5K`>[4>`IP4>`17\\6HX>o5H\\11S32h1Bc2N\\25o1Ml2<W1@h2AW2Jd2KW4H`4?g8FT2KW4J\\19k6HX1K[8CP1Ao>?h2Mg=B\\16S71P1Lc8:X2Oc7KX30k5JX75oD1l2<W7<l3G[9FP32g62\\:=SGE`20o6GPJW7D\\9\\8?lBh3Fh1LP3Nl2Ch4APDd4M`Mo68d43W5EX6Mk5>\\7Fk6=P23_26P16g4;\\11g7KX11S84P6l7AX1Ck;9XA`5LT1N`77l10`5A`4o8Il11g6@T2I[6A\\2Ch5EX19X6>X4\\7I\\13P79Td5K`2Cg3=\\43W2>h3=o24h4?gJl1Ao2OP16g6MlJl4Kd2Ch5M\\OX3@`17o2Fl3=o29h1?_1=d3S2Mh1Ml4Ll4C`87h48X6;T4;\\6A\\5Nd>?h1>X5BT1D`6;T3B\\?6XNP6?`BS>O\\;W76P1Bc7EP1Ao6I`Nc7EP1l4>`Lh26PM\\16h2Kl6l29T1;T1>l23`1@h5BT1;S39POk4E\\16S71d10_38\\9:SC=l1D_4<d1Eg61h1<[54\\1:_46\\16S29T1A[31`1HW2>TM[1>X27W3FT2Do89P2?o47P2Io39d2?[20\\74S3Hd4=W44`1<o16T3G[3J`3=[44`1Fo18d20[C\\43k=h4?SK`23_Jl5>[2FX2;c1K\\3=o3>d51k4E\\7I[6Ld4@[4LX>@oA@P:0c<9h2B_36`2N[2Hh58S2I\\2G_1LP4E[35l6Hk52`3:W28`36_1HX2L_15`JHW8E`43k27X2L_2Hh2Fk3Cd27k3>d54[5OX3B[5Dd1;S2Fl2Do87h1;g4FdHo29h23_4>`17o1Ld1OS27l61g3G\\9E[5H\\6=c3Kh3=[1>l8L[1@h94_El4BkDP7>g18P5M[10`","name":"Baza namiotowa Gorc \u2194 Ochotnica Dolna, stacja benzynowa"},"6712":{"end_start_time":30,"distance":1.806300,"start_end_time":55,"id":6712,"encoded":"MAH@O\\<16A<d40S:Gg33o:Ok1CW3:W2Do47c17o36_1=c39c5OW;Lc3Cc7HS5LS7N[71cA<k4M_7FW2Do4LW2Io4<c4>_3Hc4M_2Ak66g5C[30W1Gc1Og=S11g@X1MW26d1N_44`3Lo5JX36_30l2No3G\\14W1>l2<W1=P39c2;d1Og8T2:oDP2<W1Jh27kOl1CkJk3:k43k27W18c1Ko1W3J_?d5Gg5P2;cH[2>gLS6Og5;k2Hg2HS2;c28_K_2<kHo32g1Ao3Mc12oOkGg8T2>S3Ah2>S3;`69W6GP2MS2Fl2CgJl3=o3g2OcLS4?gHo4IS=g35k2;c9@o4H_70o4Ng37gNc3<SP43WId7KW3:l30k5d1=c1K[1=c73_Mo2G_22k22k1I_26c3?k7Hg3=o5Nc62o95g56W89c5P43W7_3Ag","name":"Polana Podska\u0142y \u2194 Gorc Troszacki"},"150":{"end_start_time":80,"distance":5.091600,"start_end_time":110,"id":150,"encoded":"MB3@=d<34MH\\40S3Cd2Jc3E`4Ac73`2L_4APNc1?`1A[27l<0[C1\\35k3;`9oIc5C[DK_Nc;Lc1X7<W:P58S14l7D[=S72W9oJD_=g2OcMo3AS1Eg3Lo1Ko4;o6A[<<WA@c10<k51k;4k4GW:7_4J[70[56W9Dg28_3:k6OS4LW34c30k7HS<Io3<g1Hk;1S3S61g3AS6:_54o5LS5>[36_43k:LS=@_7Do==o2No:>[37S7Do46o6Ck44_6Bc2Mg9@o2Do8=[3:k87S21c4IS11S30k?c21cH[53S8S3<Sc2D[:d2MgDP27W10`1OS3Ah5=gNd2Jc2_49_1Ko51k5EW9Oo6<o;ES33[37g9;o8=oGSDc1?_1:_8g:c54[5Mo5Nc47c48k1;g3@_38o56k79S2Cg1Eg36_5;W2<k7@c1MW80k25[:9[1<[5?c51k8L[66S;K[30W1Jg5BS2Jc58g5@W4Ig54o5OW:=g3E_6Gc2HS60_;WIc3Mc=:k2<W:7_2Kk66g3B[8L[2Hg8Fg9[>E[3T;OS1>W90g5A_>@o3Bo;7o2L_9Lk1A[>C_10_3@_1:_38[8g1F[P21c=h2>SJl1Lc44_79S3Cc4:S6Eg4O[40SCo5M[6l3AS2<l46[71P3=o6Cl27k26d3G[A_3Lo66S2KW;=c1OS=8[30W=:k73_;=c4>_98k34c;4W3Fg?1k2Cg5M[53S;?_28_7;c1@S2B_3?k3Lo7`3BoLg48k6l4LW3h4C_F_5>o1I_6Bc2MS58g1Ck5:c1Bc94_A_4Ng@l>3k6k7D[1@h5Nc2L`7>g1BP70[1OT6JS1>l6HWNP5EW1MX5LS1D`8AS1F\\9=k7`50c12\\3Nk1BP46[3<h6@S;X50c20[74S25o66gGg7<k?c4>_@l<>S","name":"Szczawa \u2194 Nowa Polana"},"80":{"end_start_time":65,"distance":2.782900,"start_end_time":45,"id":80,"encoded":"MA2I0h;OE37X27X4FP5K`93X9=X;Jh62\\;1h9?hF=`19l68d1GP<@dJX?3h6X53T1W6<\\4[5@X@k4J\\1MW32T1CW26P1I_54\\1@S26d1<oDP22k;l18c2HT20o4Ll:c22l:P59\\=S35lBg5JX14k70\\@W6>l1Hk5F`Gg3Il17o4=X2Ec:@X1Ao3CP12[2<lBS4IhLg39dEW80lHo:Ol<`4@\\8T3DlC\\4@\\K_6>X>\\5M\\1N`9M`C\\55d4\\58h11h5BTK`<1POl4NT1F\\5:d3>P7JP2Al6D`1Jh4GX1CX69l1Jh4Ad1Hl6:`1Eh4BX29h;4X37T85l23`9Ll1Jh8MP1Hl3HP59\\8@`3Fh7<X4GX<Mh4KP=4d20\\48X21d32h1Eh1N`29T2G`5DP9=X4Ad6Gd4<P90T4Nh:;X4GX8Cd13P5IP23`55P26P3=\\26P24h5C\\3IX45h4:h4Gl66h1Oh1ET3>d1Ld5@X3MP;ET=DX50d8>d2AX5?PGT1Jh16h6K\\M\\2Jd3B\\6I`2OP6@h44`7Ch1F\\5IP11h1;T1;h10`2;PM\\5@lNP2;dJX3DX2B`27X2HT2=`4;\\27l67\\","name":"Hala Turbacz \u2194 Prze\u0142\u0119cz Borek"},"17":{"end_start_time":30,"distance":2.067000,"start_end_time":65,"id":17,"encoded":"M>;>8X<4>CO\\2@dGh72X1OT6D`2<l4BX2@d2Kl27l45h3Dl37T3Ah21P3:l1OT3=\\32h5?P1Ld4H`1F\\4Ih=T21d9\\26d1W2OP7_4:T1MkCKPBS4Nh1;h=g14XM[OXOWJXOWIP12o@l:cDP:d@X@X7`1Ml1W33\\Lh29h1LP2FlOX2;d11h1Ml2EPLh2JP15`8E`8T:6l5=h73`5A`26P1BdNd1Jh24h2Kl45T47P47P4Ll5DP7CT1I`34d3J`6A\\2I\\26d4FdLT48X1Ao54\\Jk3=\\19k6<\\1Ao5F`5Ho3KT1HW53h10_3B\\31_44`5Ic45h2Mg3AhIc2@dLh1@T36`20\\5EX1Cl48l1HX34d6ET71P5H\\4H`2:\\21P19X2>h1W3E`F_4Kd1>k6GP6X9KPBh;Gd10`47d1N`2@d3L\\DP2>T:P29T1N`2;d6?`3Dl5:d28`4GX1>l4Kd16T;F\\17\\?M\\2>h9Gl32T69X30l1@T4KP1;h2HT6W3=\\;W","name":"Sromowce Wy\u017Cne, K\u0105ty \u2194 Prze\u0142\u0119cz Trzy Kopce"},"94":{"end_start_time":145,"distance":6.015000,"start_end_time":95,"id":94,"encoded":"M?K3LX<3MOJd37g=S2:o18c1Mk1ES1K[1A[2AW1Ko3<g1>W69W1;S32S10`1Gc:P1JgP2FW1Bc2Jc14k9=WH[22k@k2@cBg2HS1D_4;[38o4Jo6D_59[74g22W2:o2Oc3>c17oOk2Do3?k36_27W2HgHo3Lo2>g24g2HS19WLS1<o2_C[>[1HW1Hk1>k2;c1K[1A[1;SC[1<[4\\16g:c1=cJlMo2<l?cIdJW57`1@S3O`M[22l10_El16SP1CWGS37g41[1Jg2Ak2AW22k64k71cOW3<S23_1Ck22W3T2;c2<X1HW3:XJW2@d1;g34d1Ck4Ad21c3O`1:_31`1=c1=P2KW2@d1MW29h27W43X1?_3@`:LSD0P2N[5Bh36_40h29S5:P2AW5OX2FW40h3>c26d4O[26d2N[2CT4Ig5JX46o39P43k17\\51W8T2Jc>\\3KS4\\40SEk59[Ek4Ac@l34c1Cl5JW3?l25o3MP6ES>AP4>_97d3?k5JX3Cc3Dl3L[3;`51W26d47c2Od3>c1N`3<S3DX1<o15`16S10`JkEl1Bc2`2:[1;h33o2G`2Oc3Kh1@S2<l14k3;`8g65`;W49`12o31`2B_30l19W3Hd17[1Oh38[1;h36_Jl4=k26d2B_11T3Ag1Oh2Do18P1?_1Ld1OS3>d21c37h1F[38\\C[4Fd=S4@\\Lg5A`C[51X1l7:\\6l4J\\P3E`1=c2Fl1;g34dLS4@\\12o3Dl2I[1Ld3?W1;h2Do@k2@c1;g3?W6k3E_1I`6>k3Dl2Do2@d20[2G`1CW5C\\2Fk3Cd38o30l42c1Ml3=[1X6=c4\\61gDc4Ng?P8Mc47d3?k7_37S1:_4?g2Cg3G[3S59o20\\27WJX1I_=T24gEk1=c19k1<o4@[1?_3Fg27W2Hg2Mg2=_<Mg8=[3=oOk2<W;k3<g8T3=[El3B[14l2Ec2Ch4@o64X22k3E`29g4O\\2Kk3Dl5=S44`53S4C`5?c5Ol4H_51l6Lc51X2HS2Hh2AW4;\\9Eo<L`2N[68d2HS9Bl19k44`58g7;P8?W=0l4<c58T3O_3Nl5>[3@`3DW2=`3<S40hFAWNA`36_34d7;c:;l7<W;6h2<W3O`1Ao3Fh87S>IT62o?2`2`1Jh<`1?`26P1Ml1I`EX3>d?d37T1X<0\\;9k2D\\1Hk1LP4\\1=dEl21P2@d42d9<P5@k6BP23_2N\\1k8TMo31`6D_D@X66gEN`26c56X2Io35l27k1GdCO[5Ol12o3g2=_8g12o1W14k:d22k1;h53g48l96[9?h77W68d1Lc16h3DW1Jh:1k14k30kJk16g;l2Jc27X4:g56l19W2Hh6k19lEk3MdHo4DT=3[AMT8?k;=d4Oo6Gd39c4:h5:c5IP2:[1D`2@cNd1Jg4\\1Bc4\\NcOX27k27l","name":"Luba\u0144, Ruiny bac\u00F3wki \u2194 Grywa\u0142d"},"3459":{"end_start_time":10,"distance":0.438400,"start_end_time":5,"id":3459,"encoded":"M@DE;P;O?5:\\2B_2;d61g5?P5Jk42d6W1;T16S2<X1D_1Ld27W3>P1>W1@h1I_EX6Bc51l1OSLT28_19X1Mk2Al1A[36`1Fo37h20[19l2AW10`2AkF`2>S7`17[Nd3G[5P1Fo6l1>WJX1A[2EP1>W2Al1Ao3CP2CS2G`","name":"Bukowina Waksmundzka \u2194 Tomusiowa"},"8573":{"end_start_time":25,"distance":1.476300,"start_end_time":25,"id":8573,"encoded":"M?10:h<3104\\25\\Ok1LdF_4Ll1Ao3AhH[3KTIc3HP7_2EP3S2@P<`21PDd2OP16h26dJX2CT1=P34d2<X1>X1@TK`LT3KT4Gl6F\\9=lB6`173k2;P40g2JP30W29h1F[26d11S1N`Bg3DX4o37hM\\2OP1Ml2Hh2:\\19l1BP7:\\8FT3DX3Kh5Ol5:P63d4Bl25\\1>X1GPId1GP;X1Gd5P1I`7_3HdM[=L\\5EW2KXHo30l4o39P@X3>d15`35l1A\\4Ih1Cl1W1N`9\\15`?PJl24T2B`2FX3AT1JT2I\\2CT4KP1D`3Kh2B`7>h21d5;l3DX6:`5c1LdGS58h10_51lId18PEX30l2HT<I\\39P<CT18P5JX","name":"Osada Turystyczna Czorsztyn \u2194 Kluszkowce"},"19811":{"end_start_time":90,"distance":6.015800,"start_end_time":165,"id":19811,"encoded":"MB9D6P<11?Mh1;S17[K_8S3Ag39d3L[5BT2=_Id24gF_52_2@cDc2I[2HS28_6W2Hg>[3L[1JS4=W49_37S1Ck1N_1F[31_24g2Ec38[3<g4LW1>k2?[Ok1Mk1Ck3:W2G_38[1Hk6K[1Ao4>_38[25[1<o6>W17o4Ac3T7>gNP7D[Ok2:o@l1N_Jl2B_@l2Hg6k28_Ho6ES2Mg35W1Hk20[1?_18c22W17[2FW1A[5Co1?_2Ec6;S62o1OS=g1I_=h6>W54\\38[2>hF_24g2I[6>W58S93k4Kc7No1ES1KoOk34c9[2L_1>k2Fk1Jg1Og16g1GcDc1Ko8g29g7`1Hk1>l39cLT18c1Gd3DkC\\8Go;l7DoEk4O[Mo4E[13c8<S37g83o1>k47cJW3LoLg1Ck2Mg62o2AW3>c2=_4H_2Fk7@c3Go9J[3IW6K[1ES5Ho33o73_Ic1>k4Eo9?g21c3Mc2:[39c1A[1Mk1Bc2Ec3Fg3Ag9;o;:_:8g;Ck<G_=B[3E_4@[1Jg1Ck1Og2Jc41[52_2KW3E_2>S2Io45S6ES4LW9Ig1HW60_2Io<Oc3@_8:k2AW2Fk2KW1Hk42c14k43W1>k3;_Bg37S9o3?k12o57_8T5BS1Ao2@c1X2KW14l48k17o:GS6<[30kJk69W;k43WLT3Ik31`53g4>`4GW3>d3Kg1;h3?kP66S1;g50c@k40S1Ck3Kg22k41[54[2>g1CW6>W4Bk33oJW34cJX6Ck3J`38[DP5>o6W2I[Ol4=W1Hl6@g1>l7MS2Al2Cg1W2D[Gg3<g3?k2N[15_<Jc15`94_@k8Ag13c4Bk3S9Dg1BP95gLh5K_1@h41[Ol2Oc3T38[1Mk46o1Gc1Mk1Fo3<g51W1OS2Oc2<W1ES3Bo8g2?[3h2<kLg2Fk1Jg40gOk3:W11S2:o1Og4?S4>_3DW4E[2Jc2Oc44_2Ak3Fg2Oc25[11S3?k1Bc43W3=[2:[1;g2MS=h2>SJl2:o2>h77k9=l5>o2<l20o1Gd37S18P1Gc5P5=g3<h6@g23`3?W2Hh3Lo1>l80W50d3Hc2Ed>Gk;Oh6Mk58T24S2EP1@g46\\1@S44`1=c2Hh1?_Lh1CW18c1Jg2Hg24g1Fo1HW14k1Mk=g1Hk1l1HW13P26c2ChLS1>l1Gc48X1Jg63d19W56X5c3Md3h5JXA_5M\\1;g79T19W4O\\1ES4DhK_3L\\6W40h@W3L\\6k34dMo2Ch11g18P19W4o16S1@g21c4=k1Lc4GW2Cg8AS2<W:Gg1?_5;W11g3Fg11g2G_13c1Ko@W1;h8g26PM[1Eh1Hk19l1:_1Gd1:_2<l1Fo1@h10_26d3T3Kh1@S4O\\16S3J`38[7:\\19k4C`1:_2Mh1@S1Oh1OgEl16S1=dCo2ChJk1BP23_1Hl3FS97P12o39d16S1Bd2Io30l83[76P2=_4O\\1@S4:h12o36`OW1=P1CWBh2L_El3NWIP2IoIP29g13d1OS13P17[NP1OgHo36_1@g3;_26c1MkBS1@SOX","name":"Lubomierz \u2194 Kud\u0142o\u0144"},"79":{"end_start_time":20,"distance":1.308000,"start_end_time":30,"id":79,"encoded":"M@DE;P;O?5:\\32T5d67\\2@P45T3T40TEX3>P2:\\2<X8T21dLg23`6k4M`>\\4LlBg21PM[4LX4:g4IT1Fo5@X1Oh2;d1LP4Ad22X3IXF_17\\;l16hJl2<l1OhGh1A\\LT18P13P1;h1D`1BP3?l21d84P3?l99`7AX56X3;`1JT2=`2>T38\\6;h;Cl36`47P3O`25\\IPEl40T2HT2<XM\\47P?P82h30W25\\Ic1>lF_1N`5P63d2I\\6LP29T;6h1HX7<X66T>5h6:`=Dl8IX5JX4<d1HXJX","name":"Bukowina Waksmundzka \u2194 Wisielak\u00F3wka"},"2467":{"end_start_time":35,"distance":1.889200,"start_end_time":35,"id":2467,"encoded":"M>I4@P<2ADFT1Ao1BP1JS37h1<[2EP3Bo6:`40g5Bh27k3DX19k1Ml18c>\\1F[7_1A[@k21cEW1=cP1Ck1>X1CW2Mh1OS31`1ES2G`1F[NP3Nk:P2:o1lLg1<o3?k19W:@k4;o5Dc3?W70o37g4Oo1;g4O[4o4Ng19X8NW2Fl5F_12\\4NgEk15_8S5F_16S4Eo2N[3O_2:[5BS56W=6_<Cg35W3Cc6Bc7FW:<_=E_46[5BS4Jo54[2AW3:W3Lo3Lo4@[3DW1?_1K[2KW3J_21c2L_4Bk59[2FW2?o59o51W1>k1;gMo2:o11g3B[1<[40g20[3@_1Gc2;c1<o33o17o48W1CW30k1N_3L[2<W60_1Gc2L_2Mg3>c1CW2@c29S60_13c3J_3g4@[4o4Ng>[48W1Gc4H_1Jg4:g2Kk4E[2Do4@[1ES2>g12[3Kg32g7CS4LW8Lo1Mk24g27k2>gOk2Mg17[3L[12o2Hg1Lc2L_1A[14k","name":"Falsztyn \u2194 Prze\u0142\u0119cz Przes\u0142a"},"19":{"end_start_time":65,"distance":4.364400,"start_end_time":80,"id":19,"encoded":"M>L=L`<0AEJh2:o:PA:[5;WAEc89c4H_5EW8:W1F[7Do1OS7;c4DS7G_45g6;g2Kl4Oo29h1Eg;k8Hc1Mk90g2D[5OW5Ok47c4DS35W2CS3Kg1>W87S2<k8IW;k6BcP9Jo2FW59o=g6Hk4AP5:c=g7CS28_8Ag3@_;7o75[5@kJk5?c3S3;_14k61g3IW3NkIc75o9Nh;9k?1XBNWK7X52_7OP3Dk85l12o6LP@l48l2`19X6l3B\\;X37h22X4LXDP34d1k1Eh1k1Eh1@g9?T12o=9d1@S;Jh:c;0`A`9GX4\\97d8g:;lNc3Kh14k57`P85l4\\5A`8h5>\\1W2Hh1W32h14l2N\\=T3NlJW4DT=S3:l<_6=P@l70\\=h2@dC\\3HdA_7N\\14k7Al1Hk5A`P3>dA`69XC\\74T11T3Dl@l3B\\1k5K`A`5BT1Hl6I`1;T54\\Lh69X=S6F\\6X66T1>X9Gl1BP8B\\17\\6CX:d4GXNc:El=S9KP8h6JT1Hl7EP2EP?5d6l46\\8T3;`12[7>T=S4Ih1l3L\\1;h34d29h3<T3E_66h7AWGCdADo181l35W4AP;I_6CXO>kDJl4Fc56XGIW1:N\\3;_4Fd<Cg97P;6g8Ah44_50d46o6GP36_4IT4=W51l4Jo7CT48W<<l?c18P>[JX>[=h","name":"Krempachy \u2194 Dursztyn"},"16154":{"end_start_time":30,"distance":1.831000,"start_end_time":35,"id":16154,"encoded":"MA?A2X<0=9Eh18c6kLg1:_2_2HS1@h87S2_?;W1?_=;_1;gB:k1?_;Ck45S>1[4?S>O[78_?@W70[<L_AMSGNk:9[7;c6>W3L[5=g2Io4;[3g40S1>l4DS3B\\3Fg3Md72k8:l7Ec6Bd=Nk9BX:=g5=h8Fg2Mh77W3DX;4k79T6Eg37T3:kP2@cJk2Hg2G_23_3:k46[9:g4Jo7KW59[6Gc>LW<?o;?_:Mo;I_:6W20oC[1;S1Cl3h2B`","name":"Brukowana Droga \u2194 Prze\u0142\u0119cz Borek"},"107":{"end_start_time":80,"distance":5.340100,"start_end_time":125,"id":107,"encoded":"M@817T;N@2@P29S5;W3Ik69W1Ao2B_1<[28_5c9[29S3;_2HS3KSIcOl17[;l33[3T1Ckd?P7@d5P2@d>\\89PDP<Ed19XIK`6k7KX4;[138T1Og9Bl5BSG0X17o>BX1;S?@l6X=9P3T2@dH\\B:l5P:8T=g9@\\LS?<`Ek<4h28_>:h3gId2MS<0\\7CS107XNc4IhP3O`?P3Kh57`I0d2JP:9\\1>X7Kl=h49`28_=MP1?_61T;k2AX8T1HX1Gd4H`IP3Hd36`9?T29h:Id16h9=XBT2FXOl2CT4C`4DhDc39dBh7<X6l2D\\H\\3@`@lNd20\\3DlF`34d8h1>X15`2D\\4Kd3IX1@T26d1Oh40T1=d4Gl;X47d6X;K\\13d5IP12\\;1T12\\3CPNd1?`25\\1;T4@\\1;T8HP5d26d?P2?\\14l1;T14l1OT37T5Dd<Od3MP6<\\1=d2Mh1LP5;l1D`6LP1Hl7>hLT2AX18d26P25\\2Fl2N\\2Hh1Ld2;d13P2B`13d41\\2@P6Jh2EP64XNd27X16h40hK`6EhJl2CT1JT4?h2MT5Dd1LP2<l2FX2:\\2KX1Jh2Fl2G`3NX5DP29T2;d6Ml4NT6?`73`;Eh::P4KP65`3=\\3Kh1CX1I`29h38\\4Dh7N\\8>P=4P?dH\\29T2;d54\\4:T2Hh35X1JT2>T2Ed4=l2Kl4H`1@T1MX53h48l8Fh89P2JP21P7I\\3HP4@\\1=P7;PDd:EX5:d61T50P:8T7;P2Al1;h48XK`64X35X5=h28`3Hd32h2<X34P3Il83\\6>l<5\\5Nd?6l5:d;?`2;P65`2Ch5;X38\\58T26P2CT33\\26d:6X4FP55d35l1OT22X13P1HX?PH\\5JX;0`3L\\8Dl32T6I`2Kl7@d46\\8=\\4O\\=<h2Mh9@\\2Mh=;`24h87h1CX3IX1Oh2MT4NT27X1=PDP2OP1I`9Kd80X4DT4BX1I`1CX7?\\47d3B\\1Ml3Cd2<l?0d9Ad76d6I`35X3G\\1@T11h21P11h22X1Ml1Jh1OT3Fh4<P1MX2AlLh1OT@X27l","name":"Nowy Targ, Oleks\u00F3wki \u2194 Bukowina Waksmundzka"},"6883":{"end_start_time":55,"distance":3.404600,"start_end_time":55,"id":6883,"encoded":"M?D>Ld<0E>1P28`27k:?P10_:2`1=P4APDP7=`1;h4FPLTF`3T58TGh:BT1I`4KP=h7>hDd19X@l1;T2_1Jh3g1K\\3g3<T15_Bh2:oA`4<c13P90gGh5>[Lh74S@l>H_13d:4oK`:LSd6Mk:d3;_1=d1Ko=J`1JS1?`17[H\\3L[4\\3>c1:`4IS22k43W2Do<I[1F[9=kA_4M_?d57_2_3=o:c71c10`85W2`70[EX9:g4\\4C_1>X77WEl8?k6k8FS6l9NS22l7Ec21d;Ck1OT81_1MX85k2:\\8=[24T6<o14l4Ig15`9:SEX3Nk24T:>[C\\38[8h31_:d34c=h20oH\\26c1;T26c2HT1Jg7Od46[2N\\20o13d19k6k2Mg11g2Oc1Hk3<g66S5>[3FS3E_5Gg4Kc69W4M_16S1Jg6Ko9Ng2?[4Ac1:_4>_2<W<@c2;cGAS>o55c4\\2;c17\\3O_18P3KgJX77WP69W7_5>[2I[?8SDc57_Bg6>W4[70[=T;Lc@W75o1Ao6MW8=oK;c8NkI7_29g6I_2:[8?k1k1AoLT44_K`7KW@X7L_15`8B[BT3Nk1X1Bc5c20o?c33o2N[76cEW1N_<_34c3g3Ik5c8HcLg61gEW2EcM[2Hg26c5Ho1@S2FWOW1<oJk1OS1Eg5LSGS33[<_2MgP78_:d2G_Bh1JS@l16g=g1K[<_14kF_27W@W11S8S?c=g?cH[Lg16S1;g1Hk27W37S5GS2@c4M_=gK_LS1Mk7_16S4\\19W","name":"Harklowa \u2194 \u0141opuszna"},"8546":{"end_start_time":15,"distance":0.310000,"start_end_time":5,"id":8546,"encoded":"M?LEFP<3N>Kl2Do10_2I[6l25o12o1HkH[11g1HkLSLgLS=g35k>[16g8S3Hc1l2IoOW7CS1OS4Fc2FW46[1F[42cGg2AkBg3>c1X","name":"Skrzy\u017Cowanie szlak\u00F3w niebieski / zielony / \u017C\u00F3\u0142ty \u2194 Luba\u0144, Ruiny bac\u00F3wki"},"5819":{"end_start_time":35,"distance":2.357800,"start_end_time":65,"id":5819,"encoded":"MAFM<T<27?ATA_38o1=c3Hc14k1JS3Hc79g1I_4?g35k>1[1>k4GWEk64W1MW51W1>W4Jo9o4@[M[4Kc1@g38[2<k13c4NS1OS3Ag24g1Eg1=c37S2FkGg3Fg2`5F_6X2L_?c4>_4J[92c1;S1OS1ES1Jg42cGS28_1:_2CS2?o16gOkEk1LcM[34c1?_29g2:o8h2Ak2@P1A[1A\\2>S3h62oF_2FWCo29g13c22W2Kk1ES36_1Gc3;_46o6F[1I_4C_27k6<[Ic42c2_3<SP40g1Ck19k2OcGS4GW19k3IkNc32S8h3Dk1Hl4DSIP2N[=S4?g1Bc5OW1;S6@g4@[2:oOk2AWJl33o27l2?[Id2JcIc2CgEl20o1Ml25[33\\4Lk3Fh30W3Fh1Gc21d19kA`41o9\\3Hc19k1GcJk1@g;l1:_1Ml@W3G\\Gg5F`2>S57`11g3Hd1CW6A\\3=o76P3J_56X2>S2JP38o57`3Dk3@`JW2=`1@S4M`1Ao2Mh14k2MhM[49`13c3E`1Jg29h1D_22l16S2L`8T3>dIP2AlF_4BX1X4Kd=g5<`;X2AX3T2;P14l3Hd13d32h1<\\27l15`1Eh11h34d1<\\2Jd19X22lJX1Hl7`1N`10_1Oh1;g1GP1Lc3@`1OS2Jd2Jc2;P1Eg23`24g1@T16g8h9[39d2`5Ol=S33\\EW2L`17[14l15_3L\\1>W24h:@k:2`43W27X4H_Ol2N[19X10_Gh","name":"Nowa Polana \u2194 Gorc Kamienicki"},"39":{"end_start_time":40,"distance":2.531200,"start_end_time":55,"id":39,"encoded":"M>HDK\\<45?7X21c1?_<_29Td3?X1>k2@P72k90T4J[7OP5Nc;3P8Cc?=T4>_:@X4Ng8Kh3Lo7>T3?W4H`5K_5BT5Ic62\\38[4>`1A[59\\8g4M`BS5A`1@S5<`2;c5GT17o6>XC\\5C\\Dd64X@l8G\\:c8IX1?_:?d7_54\\8g82T1<o5;XOk42d4=W9M`9o1Jh6X2AX3@`KL`19X:K`28`>FPOk5=h1I_4Ad3<S5LT10_2Ch>o3DXIc3Md9Dg=AT3Fg27l:5c4BX2HS1Eh2?oEX2Mg1Jh4Ac3Dl15_1@h35W6CX74g<Ch48k64l72W8>d1<o2Ed37g9<d23_6>X3g2=`=h1MX9[2KlGg1CX25o3:lOk24h21c6MXA_2>T1:_3E`=g2D\\1k3KhMo2;PH[48X1Og5DP25[6Ld1W2G`14k21P33[56X3?k4E\\67o7:\\4BW6OT2Do7CT10_8>PBg7I\\7_6@T3S9DTM[4=X14W3Cd19W5K`1Ao7EP;W3Fh=S48X29g88\\H[4O\\;l3NX8h4Ad4[36`F_2G`","name":"Prze\u0142\u0119cz Osice \u2194 Prze\u0142\u0119cz Trzy Kopce"},"6018":{"end_start_time":50,"distance":2.753200,"start_end_time":40,"id":6018,"encoded":"MB154l<46:BX4GW1k7B_BS3=[<_2DoNc2>g17[3J_25o6k6k2?[26c1I_1CW24S29S6HW78_7FW87S24S23_1Lc1;S2CS1Ao2Fk1=c4@[25oJW=S4=k2:[3Bo1Fo1K[OW3<S1OS3=[1JS2>g17[F_9o1A[K_11g?c24gLg24SGgLS9o3Ag19W29SJk2<kK_28_JW4?S1CW34c13c17[;W1HW6W1A[c1Mk8T2:[Dd2FW13P6<o23`22WEl2AkJl?c5d2CSLh4DS1Cl4Ig1Eh25[H\\Ok:d3<S16TNc:d37S13d37S14X1@S@l1HWC\\24SGh2@cLT58g1Jh3Go19l30k11h=g5P3Fg19X1LcEX1KoEX4;[1@hLg:P4NS1F\\14W=T2KkOl:1W3?l3:k11T70[2B`:9[3>d17[=h2IoNP9o3h3=o14l16g<`2FkM\\3@_16T38[13P4Gk1CX5GS20\\4BW1CX63c23`1KoDd2<WJX6?_27l6W1l94_37h58g1LP2JcOl33o13d6@g1OT1K[El2Jc11T6CW2<l5A_1D`38[?d4AcC[46[1;g54[20[28_11S3Ag2MS45g4<c;<[<L_<0o=;_5>o61g7HS75[75[6F[;@S<Kk2>g33[5;k4LW27k1<o3Cc27W55c31_7D[4@[7Io4BkC[=SEW=S4IS32S1Ck12[3L[30WLSEW","name":"Zbludza \u2194 Kamienica, Pierzgi"},"4191":{"end_start_time":80,"distance":5.286300,"start_end_time":110,"id":4191,"encoded":"M><D;d<01LCX1:_;:`F_6@h6l=B\\13dGHd10`N5P<`=<h;lF>TDP15I\\Lh?0d15`@6T26cM\\3Cc1CX6;S42d35W1Oh46oOX2Occ20[5P1Jg17[4C_7I[5@k8?W1N_17[5Mo3Fg6@g4:S5C[2;c:Co61g95g6CW2DoGS?A_41\\:OW4IhB:k6CX8FS33\\B:W9M`32S4Nh3DW4AP8<S87h3@_68d32S5M\\3<S3:l7AW;Cl4BW83\\3Ik2FX7?o2>T8AS5;XE=c1>X9Ng1;T6;SDc7AW2Ed:9[2<l9Eo22l>Dg1Bd7@c@k4Lk1Hk7Ak5;W4Bk1;g4Ac3h7@c1Eh6JSJX40g8g5M[A_3=[Jk49_1Oh3NW:P4Jo9o5Mo1?_5LS3Ag46o34c58S3Ag5Ok5BS45S57_3Ag2Mg>3k8?kE@S<Mg6ESBg4Jo1Ld6JSDP:Ho30k36_@k4;[29g6;S4<c64kLg8Dk6K[7CS2B_61g32g69W53S7=_4C_<7kA_;;g6k3;_1k>LW2Hg74S14W39c1Og2?[1?_4=WIP8L[4Kd8Bo1MX83[1Gd51W1Ao5=S25o3=o5P56k1Ld77W35l>Bk3IX8NW2D\\5@k3:l?H[56l1MW2=`20o5C\\3Bo69lDOWB;`45S8Nl58S4GX5>[:8h:Ho?Dd85W;LP2Cg2;P1GcF`","name":"Trybsz \u2194 Wierchowina"},"136":{"end_start_time":100,"distance":4.304200,"start_end_time":70,"id":136,"encoded":"M@CIFP<08:KX3Kg40h3Bo24h35k1;T5Jk1?`7:o@l24SNd3IW3HP6D_9BX11gLT1@g18d8Bo46\\2@c1Gd4GW51l4H_3NX3>c1;h2OcDP3NkJk32g2>g27W@W2Io1X5=SNP4?S1Ld3L[3g4=W3S3:kGh40S4<d3E_57`3DW4?T15_1>l;Ko:8h78_47d4=k25\\3B[11T2AW=S;F[67[3>c@k5Nc2Ch3L[2Kl19W1<\\4Oo7Jd38[89P25o82h3Ik@OT5;kB4P93kF@P32g6I`5NcA0\\?c1;h11g2>h4?S7B`4=k9Nh15_3MP2<k;I`2CS@GdJW4=l11S3FT56W=O`9M_HDh1HW3:X4:S6F\\1CW3ATEk4Dh1X5NP:d3>dA`47PNP41\\1LP5=T14l:Jl1X9Fd12\\<HhP3IX>[3Nl1:_4:h32S5Jl3=[7I\\33o>Nh1Jg5LT6CW:?P2MS5IP5>[;7\\7B_:GT2MS79h2MS<3`4@oMDTEk30l3>c:BTJk4<PP<EP10`?:POk7;P2MS;6h6@SB4d5?cB;`2Fk6Bd3FS7@d5@k9Gl5M[96\\=NkA@d3FS5<`3Dk8<hEW23`9o1@h3T2L`>o3>P12o4Kd11g8CP2_5Jl:c2D\\<_27l14W3>P2<k5Gh6kEX2Kk5El22W42P12o2MT1Jg5H\\Nc4LX14k8HP1>W4IT29S4Gl2<W3Kh1@S21d1D_3>P1Mk:5d1Hk84d14k3KT1>W3:X4Kc72l2<W24h8L[6;h1Mk2FX22k3B\\58S66T2=_2EP64W4?h2>S20\\","name":"R\u0105baniska \u2194 Prze\u0142\u0119cz Knurowska"},"9":{"end_start_time":30,"distance":1.484000,"start_end_time":20,"id":9,"encoded":"M>NCMT<3I9I\\11g1Lc1Eg3AS17[3J_C[2D[16S6>W21cB<S10_8Nk;k2?o8S2;c<_31_C[4M_1OgACS11S92c32SK<k12o62[6k15_5cLg@kJWEkOk1<o2:[2AW2MS2?[20[6<[64W1K[26c2@c4Dg1@S62[2FkC?g1>kA5o19k;@S=g4;o=S4;o8S2CS27X?M[9[81_2_GS7_1K[1HW>>_6k1CW1W11S4o2>S6X4Gk1Gd;Bc6k7?[A`3Mc2>h8Lo9\\4KcDc7Fk14k;7o:d5LS:c54o20o8IW7_1<oCo1>W2Ec20o3=o24S1CW22kNc17o14WJW1Fo5d1;g5c32g1<oHo9\\15_3S6k;k3TLg2B`3Lo<`15_:cIc","name":"Czorsztyn \u2194 Zamek Czorsztyn"},"93":{"end_start_time":20,"distance":0.825800,"start_end_time":15,"id":93,"encoded":"MA@>K\\<0JKId2HT4FP1K\\66h43l;Oh1l3=\\Bh4@\\Bh1JT7`39d@l29hc26dNP6OT5d4FdNd6HX=T32hOX<?\\K`3AhEX3B\\1X5<`IP8CP4\\3MdM[3?lEk2B`12[74T8S6:`1Lc56XBS2;P6X3L\\5d4H`7_9Ih>[?>\\6l:3hOX70\\1HX:IP2Ch9Fd2AX;6h<`4<d","name":"Kud\u0142o\u0144, rozej\u015Bcie szlak\u00F3w \u2194 Gorc Troszacki"},"16081":{"end_start_time":20,"distance":1.050400,"start_end_time":15,"id":16081,"encoded":"M@N<Kh<0:9Nd2=`NP22X16h2B`Jl4E\\2B`6Hl38\\6LP3CP1MX27l32T5M\\1Ml38\\34P62\\1I`36`1ET2Ch1N`5A`2?\\3<h71P<Od36`6;h48l7B`D0d126\\4?h7>T1Oh1;h27l37T3Fh4AP56X37h5Bh4LX74h:6X65`9C`2Ch2Ed3;`2Hh34P1ET30l29h5LT8CP3Fh7;P1Cl2@d","name":"Trzy Kopce \u2194 Polana Jaworzyna Kamienicka"},"9261":{"end_start_time":15,"distance":0.845200,"start_end_time":15,"id":9261,"encoded":"MB1@Al;O75;h<I[8KS3=o1Og19k6W:OkBT4?g16h61gIc1@g6l1D_12\\31_68d2Ec4Bl1Lc38\\2Do2Mh32S25\\81_1LP20o1=P14k1ClHo24hLS@Hl2_J4XEW8NlDc4C`1:_4>`1;g2Jd2:o4<d20o2Od20o1Jh5>[3<h6;g3@`2I[11T51kIP","name":"Orkan\u00F3wka, kapliczka \u2194 Koninki, Zagronie"},"125":{"end_start_time":10,"distance":0.665300,"start_end_time":15,"id":125,"encoded":"MA?9KP<0EH;PBS28`BT<<XId:3T15`:=TM\\7FX1K\\:BT4AP::P54\\=Fh2<l;:`20\\97d13d2JP3:X6;h2<X21P?d1LPLT3;`4o1:`Dc84d=S8DX18d34d1D`2I\\2<l6Ml1Ld7Jd2G`81`18d24h","name":"Pustak \u2194 Kud\u0142o\u0144, rozej\u015Bcie szlak\u00F3w"},"119":{"end_start_time":10,"distance":0.450500,"start_end_time":5,"id":119,"encoded":"MAEOHd;N8@<`25\\58h1Hl6>X5LT8L\\3<T6@h2>T3Hd8Fh5Nd3Fh31`3=\\55d2Ch5Lh1ET56X2B`9Ih2AX7?\\8?X==\\11h27X","name":"Por\u0119ba G\u00F3rna, Chlipa\u0142y \u2194 Por\u0119ba G\u00F3rna"},"16102":{"end_start_time":25,"distance":1.686800,"start_end_time":40,"id":16102,"encoded":"MAEA2P;O3E?h71P7Io50P39c5M\\26d5El29h9:hOX:NPGS66T2<l74T7OP;8d=Md:EX:8h9Kd;@h9:T;9l7Mh:Bh3KT3B\\66h2@P3CP33\\53h29h3B\\22X1:`48lMo7I\\<`:0P1Bd<6P2FX??d35X:0P1Gd53h2MT2JP32h1Bd4Ll1F\\6?`16h5NP4Ih6A\\7D\\5M\\6Jh24h3HdIP58TGT;:`<`8ATNc?Jl2_@N`3:l><P1@T49`1F\\1LP1OT11h3DlBh","name":"Odej\u015Bcie \u015Bcie\u017Cki edukacyjnej \u2194 Skrzy\u017Cowanie szlak\u00F3w"},"16105":{"end_start_time":20,"distance":1.312800,"start_end_time":40,"id":16105,"encoded":"M@L25T<1282X26c3Ag1:_3@_Dc4Ac1W4H_IP3E_2EP4GWOX2KkLT4M_16T3E_2:\\3Mc27l4@[LT3E_A`2Cg1>l3Fg19l1@g3E`1D_3?X25o22X1Og38\\3Hc2EP30k20\\31_NP35k4o3DW@W3Ccd4?gCo2No2D[69WOW4=WM[46[P9?gK_67[4o5DcP;@gOk8NW1;S6Fo2@c=1_2No;=c26c7No23_6A[2Oc6@S5JW:Nc2;c5:c1A[4<c=S98k=T:8g1@T;<oJX3B[1F\\30k34P3E_3;`3Mc2Od36_2L`2>g2KX11S3?XNc2Od;W1JhLg10`1Mk16T2OcJX2D[7`1N_4o3Bo","name":"Polana \u0141onna \u2194 Pomnik bombowca Liberator"},"6847":{"end_start_time":60,"distance":3.962700,"start_end_time":85,"id":6847,"encoded":"MA8OEP;NJ=AT6k32TOW99`:c7MTOk68PEk4IhEW3>dM[5GT6k6Bd>o2;d10_43X1Ao9DT33[<5\\EW30l3g2@d1X2@P2Ec9Bl1>k2N\\1=c5=h1<o7JP9[4E\\Nc30l1:_2Jd8g2ChOW3L\\2=_5F`6@S:3h1:_1D`41o39d24S2HT1Ck46\\5>o9:T3Kg3AT27W1JT51W6<\\1<[2Ch14W31`LS3Fh2Oc;8d1ES57`Lg42d13c3Hd27k48X10_37hH[4BXK_83\\1JS80X8g8?lBS85X1D_79T2Oc9=l1;S64l15_=>P<_8CP18c8MP1Ko:0P;k6HX>o5=T1<[:6l1JS95TGg4C`12[5EX48k>FPM[4DT1F[66T2Mg7OP1OS5:dHo3NXMo6=PHo56XC[27l2L_89d2Io80l7FW>7P4M_=2T1Jg4?h1Ao2;d3<S47d6<o5@X53g4Ll4Ng33\\4<c3Md4;[3h2N[@l1Mk21P2>g53T22W1>l32g37TIcEX3Ag14X59[8T4@[1Cl3KS3T8Dk1Ao4M_8g21c?P2:[22X2HS4M`1:_2HTLS35XGS40TIP47dM\\4GlDP4=X4\\3>dBg3B\\1I_4GlHo3Md1l43X:c5<`GS4KdM[<0\\8S1BP1;S7Od14k2L`16g1;h3Go4E\\1F[41\\39c67\\10_45h19W4=X1:_2Ed2Hg7HT19k6?`OW5EX1I_5H\\1OS4O\\14k3AhA_2Mh5d3AhDc66T1Ao6Hl9o29T7`7>T1<[8<TM[3:l;k3:l9[35XP8HPHo4<d6k49`4\\1Ml1W37h3T32TH[11T15_2Jd1;S1N`13c16T1HWIP2Jcd74S2`44_6l15_3S1GcJk30W37S4Gk5OWF_Id8SDdNc16h1Ck;l1>k?PF_:PEWJlMoDd1>WP1@S7`14WGT10_F`MoBT17o13d27k2AlGS4[K_7`Gg2_>ocA_OlGg20\\EkDdCo=gOWcC[GT;k>\\BS14XLgc1<o;X2Ak19X1ES7`1CW3TGS7`1XIdC\\M\\@X19lEl1;T7`18PP2MhF_26d46[=:X1:_25\\2MS23`3@_5P2Cg1@h1Eg2@P3Go7MT36_43lC[OXGS16h","name":"Obidowiec \u2194 Turbacz"},"5667":{"end_start_time":2,"distance":0.154400,"start_end_time":2,"id":5667,"encoded":"MAL?OT;O1:KP3CP3J_3L\\5<_37h5>[3Hd:3g1HX3Go1BP27W","name":"Koninki, skrzy\u017Cowanie \u2194 Koninki"},"5877":{"end_start_time":15,"distance":0.758200,"start_end_time":15,"id":5877,"encoded":"M?O1JX<359G`1D`1@h32T2>h6I`7MT5?d8CP1@T30l4Bl@Cl1HkH2d1KoB9PJk<@d1D_74T8g7;P23_8CP1Ck34d17[4<d2:[69X1>k6A\\9[52`C\\BMP>o4;\\=S3E`27k59\\5d3<hDP3J`","name":"Polana Kud\u00F3w \u2194 Morgi"},"122":{"end_start_time":85,"distance":4.521900,"start_end_time":75,"id":122,"encoded":"MA8@JP<07N0PBT9Gl23`<Od2Mh>8X28`<9T2Jd?;l2<X<1d3>d9:T3>d6MX3L\\5EX3CP69X19X31`40T<G`13P7FX2;d:ElDP;Ml12[5BT4\\3HdA_50d4[49`Nd62\\10`2=`14l22l2_3>d17\\6@T19X8B\\21d4@\\1Jh69XCo<4h1MX8CP40T:Lh3E`>IT8h>H`?c<Hh1Ck7HT3G[;N`4Eo9Nh1D_4?h1Hk:;l2Hg4GX3Cc6MX3NW@9l6Ck=MP1Mk9<P8g9?T5P91\\8S6GP1Gc9O\\12[<4h1Mk;1h33[<@d13c<AlM[;>XCo>4`1;S8IX2HSD5P3T7Fl1Jh93l29h<B`66TA@P19X53h2`2@dLg1;T4Oo8FT29g:2`DcA2l2>S=5l42c;Gd10_62\\JW9:h2:[=O`d79T<`:Dd3J`GJ`3E`N1l40TCIh2EP=NX3<hC?T2D\\;6h2EP85l1=d4<d2Ed36`61T4:h5?d5EX5Dd51X3<h26P:1l11h2EP1BPC\\2Jd12o1Ld25[2Jd@Og8IX7N[NP7Mg5El34c8;`2<W;K\\1F[BDX4\\9Kd1Lc<OdCo:5P1F[8CP1@S<:\\P=L\\15`?5d2Mh=6`31`8CP2Fl6CX3E`6MX7;PC8l61h=9d2@P42d2Od1Oh7>TEk2JPEW","name":"Prze\u0142\u0119cz Borek \u2194 Skrzy\u017Cowanie pod Stawie\u0144cem"},"6899":{"end_start_time":5,"distance":0.268900,"start_end_time":10,"id":6899,"encoded":"MA<AEh<2:FA\\2B_IP2>g1?`2KW2Ak4Jo66S35k?c2?[4<c18c4=WBh2FW17\\21c4Ad7?o=h1<o>o1Mk20[2JcLS1Jg6W1I_6X17oIP1<o7`2;c","name":"Skrzy\u017Cowanie pod Gorcem \u2194 Gorc"},"10271":{"end_start_time":3,"distance":0.207900,"start_end_time":5,"id":10271,"encoded":"M@C68h<3:IKhEk5;W1Bc;0_1JS9GW1<o60_1Mk5EW3NW7;c2Jc5;W","name":"Ochotnica Dolna, stacja benzynowa \u2194 Ochotnica Dolna, skrzy\u017Cowanie"},"124":{"end_start_time":60,"distance":3.286500,"start_end_time":65,"id":124,"encoded":"MA3;MT<1@:5\\?c6;T11S59\\14W3O`>[3B\\6k1Hl6k5<`P44`;l3Ah@l3O`:d1Eh=T1JhA`2;d1Ml4@\\2KX2Hh20\\15`2Kl1BP2Hh4Ll5F`?9\\3AT9<P1Ld8?XEl34d2?\\68P4Ad9AP36`5EX42d42d28`2Al4H`42d4GX6GP60`8=\\4?T5=T4?h67\\6;T?OX1LP9:T2<X7Al3B\\:@l23`4<d2<l39d46\\69X3Fh75\\2OP8?l3>P9?T2Ch5Gh1GP4<P?d7@PA`80X2N\\:Nd1=P4Ll1X3E`;X3:X2Ch60`JX2?\\1?`5C\\24h9IhNd4NTC\\5BTDd>3lEW8Fh2KW85l21c40h1I_5H\\EW2Ed=T32h1K\\5IP34P66T2Jd4Kd1JT2Fl1;T43l11T5BT4[<=`d9AP<`8IX=h52`1:`3B\\27l32T1GP5K`65`FKXEl60`Co:OX3T56XOl3Nl1?`4LX29h59\\1Eh2Jd11h2EP7`43X1X4C`Gh4Nh2@d87h2@P;1T2Mh72l2Mh6I`34P8CP2I\\5Nd47P7@d59\\5=T32h7;P4Ll97d3?X4LX2Hh5F`2>h72X27l6:`1I`61h2FX72l1A\\5>\\28`6JT1F\\6@T1Jh5F`1Gd76P1HX4Ad2Ed5F`<2XD@l4O\\8Fh@F\\N<`5@X9DT","name":"Polana Przys\u0142op Dolny \u2194 Skrzy\u017Cowanie pod Gorcem"},"16061":{"end_start_time":1,"distance":0.026400,"start_end_time":1,"id":16061,"encoded":"MAG<HP<1G83X1CWP30kP","name":"Trusi\u00F3wka, mostek \u2194 Trusi\u00F3wka, odej\u015Bcie \u015Bcie\u017Cki edukacyjnej"},"1185":{"end_start_time":110,"distance":4.082400,"start_end_time":60,"id":1185,"encoded":"MB><AP<4D??\\2I[21c2AW3<g25[3NWHo48kDc67o7_88[@X6Bc23_1@S22W9o2>S1Ao2@c9o3:W2;c2<W?P2?[6XC[17[M[5H[1=c5BSEW7:[Nc7HS1:_5JW13c95S;k4LWNc30k1@S24g1JS1;g1OS8g1Ao22kLS39c9o4?g1X6JS1W;?_9o:;k1>W63c2JP4;[58h87SOX42c85kJk57_17o64WJX30k1;g2MS2>g4Dg5C[62[67[59o4M_4C_4Fc50c4;[:K_9Gk<8_9Bk3?k9o3Bo4o53g3Hc1OS1lM[Lh:EW<4h5Jk8h74g7Ec7Ec91o4=k4=k2HS33o8NkF?o3KS@>W1HW6CW2Do7<k2FW3Go24g2?o4@[OW37SBh2L_1Hl2B_2@d1Lc2>h1Bc3>P27W8Hd3B[;6h4:S9=l4Lk<@d;k3Cd<`32hNd5H\\8g3FhJW3B\\2FW3Hd3Hc1Eh57_1>l67oEl5:c38[28_2Fk2?[3Hc32g5EW1>k3AgGS49_Ho8GoC[4<cLS3O_1;g49_3Kg8Nk4:S8NW1@g1Bc1?_Co1Jg@k1:_CoHoGg16S2Ak3:W7Do1Og20o3B[29g1I_1@g1CW26c17o3HcOW30k1F[2?[1;gHo17[8h11SIP15_1Hl1JS3Hd19k4Ll1Bc5Ol1D_1Eh1ESLh1=c8T19W9o1=c1Bc3DW77W13c1Fo1>k8g10_Bh1<[13P1Ao1l2<W18c35k;W3<gDP1;gHo12[19kJW46[BS4Fc3g66S1ES;6gBS22k1CWLg11g12o3Hc4;o33[M[4Kc14W26c4o4IgEl1I_8T2B_>o3BoEW2NoLS2<W1>k2>S1?_1=cLS1D_GS29S1<o53g2Oc3Hc36_1KoMo24S1@g32S3E_1ES4E[1Mk20o12o32g2D[5F_?d1Ck<`1<[8T1F[1X21c2`2:oH[3Kg16S1F[29S6k1I_=h24g18d24gH\\15_3T25[3S1Ck22k21c3Bo;l3;_2_Ek1kCoBg1@S:cJk>[JkC[14k5c9[@WMoBS11S9oEW1Bc3=[Nc2>SHo22WGS25[Bg2D[9[27k1kF_3S12[4[1Gc:c2>g7_1Lc1W1>WP1=c2`24S2`1;S4\\2Io1W16S1kHo3SDc7_Ok>o1;g;k1=c6W1>W3g1=c4o1Jg6k14k>o1>kBS24S;k1Eg7_1ES6W20o2_1K[1k1F[2_3KS2_1MW","name":"Mody\u0144 \u2194 Zbludza"},"16104":{"end_start_time":50,"distance":3.169100,"start_end_time":65,"id":16104,"encoded":"M@BE9d<1F?8l58T3J_4Kd4GW3Dl28_51X2;c1>l1JS11T2@c3<h60_21d23_1:`18c24T24g25\\41[90h@HW7Mh:A_1A\\2N[2@P4Gk3<h6F[1Ml37g12\\1I_1GP1Mk47P1Fo9;\\66g3MP3AS3Hd1Eg:Gh4=k1I`1Eg5@X7I[62\\82g50P5GS7?\\=3[4Ih5@k5:P4M_5:P7<k3J`8Nk2@P3Ag2HT25[5;l2>g2JP2Do2;d41[1@T3Mc1@h3Nk1@h66g5:P:A_4Ad6JS34P28_2MT1Ao2G`29S4O\\7N[42P6A[22l8<S16T70o1:`3Cc2G`3O_2>h2B_2HT1>k1OT1@g2Fl3Dk3Fh5;W37h3O_1OT3?k29h4O[13P33[<`4GW:P40S14X74g18d7Ec1Ld4GW2>T51W3MP;OS2Fl<FWDP5Ok12\\32S1=P2Cg44`50c3@`56W1Oh5K_Ol64W1Ml4;[2AX30k24T3DW48X9:g3O`6OS2=`6>k30X81_4C`>Lk?P47c8T72W<`52_A`48W31`9Lk1N`@ESK`75o1:`7;c2G`>NS2:\\63c3B\\43k3KT81_3?l9Ig16h3<S2=`1MWNdH[JX2Ec3h11g7`8<SEl59[11h7>S?P@K[DPB2g2`1@SBT8Kg2_D<_1W6?_@W3Cc1?_4>_","name":"Jaszcze \u2194 Polana \u0141onna"},"114":{"end_start_time":90,"distance":5.763300,"start_end_time":150,"id":114,"encoded":"M@CNIT<3BL:\\H\\4AP19X7G`1OT>ITLT78`1GP<4T1@T9LlH\\50PBT3:lGh4=X1Hl9Ad1BP7N\\19l6A\\2>T<9h2N\\?=h2;d9Ih28`8Nl1@T5H\\19l6I`GT58h6X3DX1X3DX8S5Nd2_JX:c3J`Co4Fd1CW<6dEW59\\19k9>`12o6=PLS42d11g3Hd1>W4Fd33[9J\\EW2KX=DW49_1Bc1ClIc1HX7_64XC\\<B`IP;Cl;W35XBS18P15_DP82g47P51W47P41o6?`2?o1BdBS1=P27kJl5:cBT2No8S1F[;lC[1@hGh30l>o25\\1=cLT26c2Al2<W21d1N_P1Fo27k2AW24g12[8g22W19l42c4>`38[24h2L_8S30W27W1Ck1;S2HS1JS3NWJk4E[OX2AW1=d3Cc4o6>k1k7?[El3J_16S37g2Oc32g2Ec2Jc21c2<W=S3>c5P3@_1Mk3DW2Oc3NW4O[33o2L_2Ak1Hk3FS2Fk>6o@:_2Do12[76cDd3NWGg3Ik1Bc44_5;W3FS8Ik36_1A[4J[1@g27k;l1Gc13P3<gLT4Dg9o43k19k3O_25o65_1>W4@[2CS3NW1<o2L_2Ec17o5EW1F[4O[2:o40g1>k1Ao1Ko3g38[5P55c60_25[26c1Ko40S7FW:7_1A[4NgNc3FSK_4O[1<[37g20[3<g5c3>c=S3E_2Mg9;o1I_49_25[23_2Do1JS2CgLg3<SA_1:_7`4Eo21P3=[?c5EW1MW;5_OX86_2Jd4=k1LP;>W4AP4O[Ol56k@k75[20o62[PC:g;k61S3:k4@[41[5;W1;S3G[1A[56k4o6F[Gh4<c1X1OSLS3Ag7B_4=k:EW1?_2No1JS21c2>SCo2NoLT2N[Nd4@o1;g58g3:k77W8Nk44_6Ao22W22k5Gg3Hc2Hg14k2N[6k41[Bh1N_3T2CgEk75[Co2;c1;S3Lo20[35W3S2B_1k60_44_79S55c2Kk39c54[8Kg5?c6?_7?[6N_2D[17o3:k1:_20o:P6Mk63P5Dc1Oh47c38\\40g38\\28_Ol4OoBh:K_9[30kH\\61g3O`2No1=P44_2L`2Kk2Fl2Fk1Ml7Ak1Ml32S1:`3DW@X2?[Dd66S2Mh6>kJl85k1Og2>g1Og3Mc3@_6Lc63P79g5JX6>W63d27W2Hh75o=>d1K[2;d13c1LPBg3L\\7_4APBg3Hd29g81`2?[7L`1JS9:T1Eg5?P12[29h2Do4=X2?[59\\","name":"Ochotnica Dolna \u2194 Skrzy\u017Cowanie pod Lubaniem"},"99":{"end_start_time":40,"distance":2.633900,"start_end_time":50,"id":99,"encoded":"M?EM5l;OOJLTDP:d2D\\1=P40h1HX4<PLT32T8g9C`1MW47P6W6Hl9oJX3T54\\BTDP1l22lLT35l1GP2CT1?`1:`;l1Eh2_1EhLSLTJW@lNc1@h2IoEl1>k18P1A[1HX1:_24h@k3KhDd98X27l5EX27l64X47P6Bd4Kd4E\\48l24T1MX;;h:6X7EP6Ml1Ml1Gd?d=h=@`;Ld14l18d1>l1D`2G`30X3Ah53T3E`68P73`<9T51l7EP75\\9Bl5NP77l4Bl3NX40h1OT3L\\<`:K`@W<OdGS4=X8SA1PJW92PF`>1\\GT1A\\3T4Kd:P95hBT;GPJX3FT1W2>h15_37hEW2HT?c1K\\A`3@`3;`3;`3L\\2JP4Dh41\\7Jd2;P43l2Od28`21P@l36`7`68dJk3J`3S3DXF`5Id1Ml9DT25\\17\\9\\3CP8g6Jh1CW78`Dc71d1D_6Ml2;c95T2MS46\\24S?@X7@c9Ad43W4Gl1JS","name":"\u0141opuszna \u2194 \u0141opuszna, Zar\u0119bek Ni\u017Cni"},"141":{"end_start_time":25,"distance":1.177700,"start_end_time":20,"id":141,"encoded":"MAM9KX<1I29hJW6;h4Bk13F`@k6=d1W4IT9\\42d8h3>P15`6=P1BP59\\2:\\5Bh52`::d1?`3Dl1;h3Hd2D\\9Nh42PB?X?d2?\\1OT:3T1Bd9BXBh8L\\4[8Dl3g7OP?P6HX10`5Nd1Jh5BT2OP5Gh3L\\5C\\40T44`92P6JTGg2B`Ok1OTMo17\\12[@X1;g3gJW8gJkCo6N_99_;9W>J[;CkE9k","name":"Rzeki \u2194 Rzeki, szlak niebieski"},"6851":{"end_start_time":45,"distance":2.586500,"start_end_time":55,"id":6851,"encoded":"M?O97h<1LH?P2Cg:El1;g=8\\27k8MPc6CXDd;1h1Cl5C\\?P2Od2Ed7:\\4\\3@`1Mk7;P2AW54\\F_4Kd2>g6JT2L_:=T14k66T3KS>E\\30k8MP>[5:dDP7HT1K\\8Nl;X5<`4[2G`10_3@`1l75\\1BP5EX2<X7HT2Hh;8P10`72X32T:Nd@X44`=S:Id?c6Bd;X5EX26d<L`1=d2Hh2>h2=`1Cl2<l17\\30l5;l8IX18d30X24T2FX62\\:>\\22X64X30l6OT2Fl95TBh:8h9o:A`7_;;TC\\62\\11T3Ah4Kd51X3Md>0h=J`10Kl39P67\\8KhD:P34d58T?0P>Kd50P5H\\4H`:0d32T9Gl2I\\67\\57`NF`21P73`13P49`4[66T1OS8CP26cB5X35W@OhDc<4h12o7N\\4[3>dP4@\\=T3>d3g8AT","name":"Pod Kotelnic\u0105 \u2194 Runek"},"4243":{"end_start_time":85,"distance":4.267900,"start_end_time":65,"id":4243,"encoded":"M>1?Ol;NN9FX10`2Ch28`4=X21P45h2<l23`4?h18P5GT:P43X3T4;\\29g32T1Ko2<X3g2>h1Bd4M`9DT3L\\58T5@X7=`3L\\3;`56X1Hl5:P1;h47dDP3Il2=`5:P65`6=d93l45T3O`3Cd26P2I\\1Eh26P46\\8T45h1;S54\\Ek4C`6X49`17\\5LT39P6<\\5Ol9:T2>h3E`5M\\4<d3Nl31`3NX3Hd3Nl1Bd4H`14X3=\\1;h32T26d4O\\5>\\66T70\\6;T4J\\51l5OX2Fl2Mh7Od3;`3Cd3T2I\\GS27l11g2:\\9o4DT29h4KP3:l6Eh29h5K`2@d4M`23`36`29T42d17o2Mh3;_27lMo32h18d2EP3>d2KX3T4Fd1;g32T17o21d31_6N`5H[7KX57_3HP2Jc3CP2Fk4BX2N[B3\\;0_;3d4O[5:d12[3@`5P7?\\Gg9Fd@l?@l>o87T:c<9hEk=IX@X4?T@X5NP1;h6Ld2Fl95h3@`<8`44`><d49`=L\\3@`29TBT2EPNP2HTElF`4\\?<`34dB<h2B`6<\\13d4NhLT8Md22l6;T1D`6GdEl72lDP48lEl5F`1?`97P22l24h>\\9Kd1HX2L`5d16h@W@lGg16T1=P1MlOX86`2?\\8MP25\\1=P?d6Bd27X88\\2Jd5Bh22XH\\9\\6>l2<l?8T5ElBCd6MlDd6l79h2<X=h2<X8T1;T6X26P5P2?\\c18dd29h<_25\\Bg25\\>[27lCo2?\\A_2<l=g2:\\?c2D\\;W25\\4[1<\\6W1@T3S1>l3S19ld1JT=h1MX4=k3Fh5?c4E\\","name":"Rozej\u015Bcie szlak\u00F3w \u2194 Kobylarz\u00F3wka"},"76":{"end_start_time":50,"distance":3.027100,"start_end_time":60,"id":76,"encoded":"M@I2;`;N7>=dJW4J\\1@g6<\\6k4H`6W:=h3g7HT8T41\\3T67\\5c4AdEk6=d1K[85l27W51X22W5<`1HW3MdK_2;d12o26dIc4<d8h5;X@k5F`LS8@`C[:JX14W=9d1K[5EX1:_2;P39c5>\\1@g4;\\Lg3O`@W3<h10_4O\\25[79T2Ak5Dd1>k1F\\>[JX17oLh2I[3>d1?_3Md3:k<Mh1?_5OXK_3J`M[41\\OW42dM[64X:d9Gl4o9?h12o52`JW3MPA_4;\\@W4M`JW8HP4[41\\:d8HPDc5A`<_6D`JW6=P6k3FhBS9<P3g9AP11g7B`35W9DhOk41\\<_5<`8T5=T18c65`1<[2>T3Hc4Ad1Eg2<lJk29h<_3?l>\\74TBS2>h1K[49`9[39d8g3;`11g9GlK_39d;W35X6X38\\@X49`1Oh=9P11T=Dl1l4M`OX50P17\\51l1OT5>\\1Gd4Ll18d2N\\1=d63P@l4C`=T29T>\\5@X14l5M\\17\\51XJX6:`Lh56lNd39d14X3KT4\\5=T:d5F`4o7=`<`5NP1k4Kd5d48X?P32hOX2OdK`34d3S2HhGS2Kl1I_36`17[1MlC[2Hh1W38\\1;h5C\\6X3J`>o42dBg4<dJW40h5d2L`@X1Oh16T2Ed1;h2Al23`4C`20\\7Al24h5LTId7Od:c6?`4o4GlNc3:l?c2HTK_4BX22k7AX1ES7JdM[56XCo83\\5c2?\\=T8L\\Jl5NdDd4IT<`92P1W5K`=T4FdF`7@P1D`78`2;d64X24T55P2G`45h18d32h","name":"Bukowina Obidowska \u2194 Bukowina Miejska"},"6849":{"end_start_time":5,"distance":0.411400,"start_end_time":10,"id":6849,"encoded":"M@N?Oh<08>:`2?o53h2No5Dd1Og3L\\2I[45h2Ak2Mh1Lc3=\\;HW?6l5>o4Ad64W9=X1Fo1Bd2=_OX2FWOl78_6F\\2:[1LdM[Gh","name":"Polana Gabrowska \u2194 Kiczora"},"6850":{"end_start_time":40,"distance":1.723700,"start_end_time":25,"id":6850,"encoded":"M@LHBd<0:AB\\1I_Dc48W2Fk32g1Bc87S15_;I_3<S88[60_E1SA0o1A[16g2MSBg26cMo2Kk=S2N[19k12o3g1Ao=h@I_1Jh47c8g34c6W>7c3@_6Og39c2No2Mg1Ko33[1Bc14k2L_1JS1Hk1N_5>o2Jc43W1:_:;k5K_?4[?9o4H_37S4E[1Hk3=o14W9BW1ET5<_DP8Nk1N`4E[JX<Io48X6;SDP:;k7_9?g2`:Nc1>l6>k18c44_9o46o3h3AS26P44_1Eh40gP3Go5d","name":"Kiczora \u2194 R\u0105baniska"},"117":{"end_start_time":55,"distance":2.760300,"start_end_time":55,"id":117,"encoded":"MB8NJX;N1;0`A_2N\\Ok2<l27W90T@k1OT1HW1CX45S14l25oDP1D_15`4Jo5;l1@g4J\\1K[4<d3Ik76P69W:0P:2_=8\\:GS;8d4IS7AXBg16T1;S7JP>o=2T1k63dDd81`1Hk6F\\6N_EN`6ESG5X25o:6X56kB8\\1?_6;hH[4M`>[6Eh8h;=dIP>LXId5EX1Bd71d1I`5<`1HX7=`GS2EdF_5<`OX4LX2=`8Nl3?X5LTJl29h4\\2Fl4C_6HX1=c2EPBS5DP7_<@d;X:2`El8?lLT3<T@X2Hh=T6;T3S46\\6k7N\\6l4H`6X3E`?P3Ah3S24h>\\1MX34P9GX3Cd;>X1l38\\@k87T1LP:7`1:`=4d1Hl;D`LT5El2@P>?h1Jh>NTDd<JP14k9DT1Jg:Lhc2MT<`2I\\15`2JP7AX8CP8Ah8CP76d:9\\45h7Od6Gd@@T2FX7I\\1I`5LhEl40h1;T3L\\23`4AP14X1OTNd2AX<`28`4\\2G`9o2EdM[2<l3FSElLS?d2>g3?X2:o80X","name":"Olsz\u00F3wka, odej\u015Bcie szlaku niebieskiego \u2194 Por\u0119ba Wielka"},"6853":{"end_start_time":95,"distance":3.360400,"start_end_time":50,"id":6853,"encoded":"MA<AEh<2:FA\\Jk33\\27k5?d17o2@d5Jk5Ol6MW6Oh35k1;h1Ko1HX3B\\1Oh5K`6I`;;h:LT6I`68P9O\\73`5:d49`1CX26d1Ml4Ad1A\\1=P4Gl2HT1Hl1<\\M\\1Jh2_1Ml;k5OX:P2Al1Bd5GTGT4J\\M\\3Ah40h9BX3B\\4LX2KX4IT16h3>P=h4>`9o53T1K[8<T16S4J\\24S96\\20o8AT1;S9DhM[4;\\9\\:3h14l88\\5d88\\;k9FdOl5EX=h72l@W9@\\Mo7@PLg48X;X87TOl3<T2;P67\\>\\4=X;k4IhEl;A\\IP45h5d2?\\Ek27l19k2AXJk3>d22W8>d1Ck>FdEk79T8g6=P6W8Dl3T4?h3T1Cl;X26P5=T<9T2:\\9C`Jl:Bh19l7I\\29h85X>\\6=d3S8Kh>[8:XBg7JP3S5GT;X54\\1HX6K\\BT6JT3S6@h1l6D`8T:3h1K\\;?`8h4Kd6W8<TJW51X1W29T16T2@d2>T4Ih3=\\5Id16h3IlDP3KhIc56X2Hg6>X6k8Il=T4ITBg40T@l2OP1Hl1Hl3FT4AP3;`7?\\4@\\5Jl1D`27l1ET3Hd2G`8AT14l7CT5c64X2:o5K`2Ec7OP2HS;1T1I_7Hh;l50P1Cl5<`2;P3Nl42d5Ol44`55d1Oh59\\26d8<h26P7B`1>X89PBg87h3h40T1>X9O\\H\\4Nh1N`55d1LP40T6A\\7JP6<\\7I\\4Bl4NT","name":"Skrzy\u017Cowanie pod Gorcem \u2194 Wierch M\u0142ynne"},"16124":{"end_start_time":20,"distance":1.111400,"start_end_time":25,"id":16124,"encoded":"MA8MBT;N76AT24h6;T?d20\\BT2;P6k8:X1?_:1X35k:IP1Gc;Gd16S3O`17[:OX29g:2`@W4C`7_:=h2_Lh2Oc>:h19W63d>[45hBT=<hBg6:`1k86`20\\A3`=g;EhDP:;l22l8Il>[>8l3h24TOl5;X8g5:P=g3HP>[3KTDP==\\3gG>P8g6;h5P41\\10`70\\DP85l=h27l","name":"Schronisko PTTK Stare Wierchy \u2194 Polana Pudziska"},"16139":{"end_start_time":3,"distance":0.215800,"start_end_time":5,"id":16139,"encoded":"M@C1EX;OJG=`35lA`2Ch@k1CX@W1Ml1Hk4Ih5BS21d1>k1GP>o3Dl?P6K\\1Cl7:\\Bh","name":"Odej\u015Bcie \u015Bcie\u017Cki edukacyjnej \u2194 Polana Kolasikowa"},"6854":{"end_start_time":30,"distance":1.080800,"start_end_time":15,"id":6854,"encoded":"MA@21\\<32AM`9\\2I[<`Lg2JP4J[5=h6@S47P5C[2:\\3>c29h33[2MT3Kg4Nh3<g26P1>k1I`1;g3?l2L_56X5Dc3B\\34c2Od33[7@P9Eo18P29g14X2<k14l3B[14X3<g16h3Mc1@T3<g1Ml4H_4Fd6OS1>l2@c1BP30k3DX21c1K\\Bg6K\\1Jg4:h2?o26P1A[1K\\1A[20\\OW4Ad9[4@\\13P4=X16h3HP5P4:TGg22l1W1;h>\\13d1=d20\\43X10`1Bd29h1HX80l4H`7<l6>X5M\\30X34d2?\\2I\\24TDdcEl:c?P>o=hDc<`Ic;XIc","name":"Wierch M\u0142ynne \u2194 Zasadne"},"4261":{"end_start_time":45,"distance":2.885100,"start_end_time":45,"id":4261,"encoded":"M>L<D`;O>36`32S3@`1Ck1<\\1I_BT21c>o2G_K_C[1Ml67o82h69W8L\\4J[71d5Ic82h8<S93X6<o79T5Ho6BP2N[41\\1F[2Jd>[1ET7`2FX3O`9Dh54\\73`3Ah85l38\\4NhOl2>T5c3Il1Hk:Id9o5:P12\\6CX4>`=Dl2Ch5K`5F`9>`3?l6Oh96\\GIl6=P?3T34d<1P2;P=Kh4GXKCh1HlAL`1Ld<Hh3<h:4\\55d::d6D`@<\\29h7;P13P4Ll8h46\\?d3>dGh2Jd2B`6=P11T3:l=T5;X6k;=dH\\:;lLT5:d17\\3Hd2I\\4=X27l4Ad3<hG6`1D`5EX2I\\CBlEl6JT:c6I`=T8Fh21P<>h4DTHNhLh81`GT=Kh6k=B\\2?\\8Il8J`BFT2CT6;h1Jh<;P8T1OTBh5<`=h3Nl1@h:>\\6W97d1N_;Gd1<[80l15_D5P11T53h19l4Fd","name":"Cisowa Ska\u0142a \u2194 Nowa Bia\u0142a, skrzy\u017Cowanie"},"152":{"end_start_time":15,"distance":0.959600,"start_end_time":20,"id":152,"encoded":"M@K7FX;OAK7h3Md62\\74T34P9Ll2MT9LlIP5NP2OP5Ol4NT35l38\\4IT5Lh4NT50d23`3NX3FT8Hd2FX5?P22l38\\40h4Gl4Ad69X<;dDK`2?\\4Gl1Eh4<P1Eh4:T1Gd29h4Dh>5T1?`46\\3?l7<lM\\2B`15`51X53hAJdEX2L`1K\\4J\\28`36`","name":"Wisielak\u00F3wka \u2194 Schronisko PTTK Turbacz"},"6881":{"end_start_time":90,"distance":5.364700,"start_end_time":80,"id":6881,"encoded":"M?081X<06MMT6>X<>T<FlH2d8MdA<X31`:M\\27l83\\14l37T21d5F`87T>Dh65`=?l4Dh6ET2L`44`;7\\@=d9KP7JP59\\6K\\CDT11CP6CX<MT5<`@Jh1N`80XOk6K\\2FW:5PIc1K\\<_6HXP7;P:d9<dEX6GP1JT:3h4=X:?P>LXK2l5;XCFd5:P9Nh8<h12H`7JdD5P3<TC;\\23`F?\\37TB7T7;P<;P6K\\?Dd60`87T47P7AXCBlJHX39P>9`3MP4DT9AP7N\\5;l77l=AhA5\\=7TLJ`1;h3E`Ek6?`2D[>3l7_6Cl4[6<\\14k97P4\\93l24S=Cd1HW<B`14k;6h2G_6@T<_3HdId42d37h7<X:3h@=PB2h11>P:EX<Al1Jh3>d2Od8@`14l8E`?d5=h25\\=DX1Jh6@TNd42d19l3Dl29h3L\\2Kl2Ch2>T22l1Hl2Jd1@h3Dl28`42d2L`47P35l49`3L\\5Nd4=l69X1HX34d3HP2Jd2>h2=`40T4M`5:P6Bd6Eh7EP6N`74T3:l47d25\\6OT2I\\5H\\7;d;N`34P68d1@T43X1Cl9DT2KlB4P17\\=@`C\\>LX1D`>4`14l9Nh10`4Ih21d58T2B`69X11h39d82h@?`=Md123X7FlH0h9FdE6h><PC7d","name":"Nowa Biala \u2194 D\u0119bno"},"6884":{"end_start_time":60,"distance":3.307700,"start_end_time":70,"id":6884,"encoded":"M>?>KX<143@TOl39P=h47dBT2<XLT33\\;X1ET3h5Ol?c3>d8T6ClJk@BP7_A9h=g3N@h38oNC\\13cD2`1JhG5X1K\\=9d1I`>DT=S9Nh1:_3B\\2L_2D\\:3g56l1Hk1Eh17[34d2FX63d1GP2;d58h1?`58T1N_3B\\?P3DX22l3AT4AP11TBIX1I`B:l16h40h1MX2Kl3>d1K\\2L`1N`GT;;T13P;N`C\\?JX1@T>0hA_7HT19WA2l19W5EX1=d:?PP8FT4\\<Ed19X4@\\@X<G`P4<Pc9M`LT42d1@T2Mh13P14l3:l2G`9<d2Jd21d18P;CX;8d40T2Al3J`NP51XP5GT?d27XNP4:T2Hh2CTGh2FlJX1:`6W1JT=T3:l2G`2OPOl19l11h>o95TC[88\\H[85l5P6<\\Lg>8XA`;3P1>l:Nd;l:6l8g>4`Lh97P29h8MP2`2Jd1Fo65`:c4=XNc65`Dc4O\\Dc9Ih;W57`1X67\\@X69X8g56X4o37h","name":"Dursztyn \u2194 \u017Bar (Branisko)"},"6887":{"end_start_time":65,"distance":3.302800,"start_end_time":50,"id":6887,"encoded":"M>A9F\\<2I7I`2_?3T9o:6l1ET;3P1Oh84P29T7OP1W4C`GS:Bh13P=Kh2HTA4T11h=8\\8h@MXc;6h;l6OT5c8<T4[67\\3T3=\\El2<lDP39d1W51XHo55d7_2G`M\\1GP1Cl1Cl17\\1OhBh37h8h51X13d7AXLh33\\M\\2JPA`4E\\1X44`BT65`1W90h7_34d4o:6l33[H1\\1Gc9FPM[:Dd20[A:\\Dc4H`2>T@MlK`79h5d5:P@X3O`1HX75\\1@T3MP3Nl5Dd@CXGE`1ET34d48X77X3O`79T2FX4H`3>P95T2MT7JP3AT84P2HT7AX2OP9<P1@T9Bl1Cl7FX1;h41\\?d3MP17\\7Hh6Gd14Cl1Gd;Gd4?hE9l1GP:@l22X:K`<`31`3S75\\27kI1X2N[;>l@@S1K5T33[9Nh2Fk9=X13c51X4[@<\\K_93l:d3<h@l1Cl35X65`F`2@P8T30X@k3Cd2FW7OPc3FhA`33\\IP21P2>T@l<FX=g:OX1Lc1>l>[42P17o71d5H[1>XdGh;X","name":"Cis\u00F3wka \u2194 Niedzica-Zamek"},"6886":{"end_start_time":35,"distance":2.043200,"start_end_time":40,"id":6886,"encoded":"M>A7Ih<2;?=d1<\\4=XLT46\\2_32hEk98Xd3E`1KoLhLg14lEk2EP17[76P4=k;Gd21c;k1>kEl5A_8>P23_2EP11S1LdJW3Cd=g59\\11g77X1Ko8CP6AoCDh8B[BAT7EcB9P2@c74T9o1Ml1F[28`13c2@dMo2EP=S16T1ES7`23_49`20[4Dh3?W3NX2CS30l28_33\\1Eg35l1I_1:`3L[4IhCo49`1W3O`1@g9=XLg6>X3h69X10`3B\\3?X5H\\22X68d11T1@h1I`49`2Fl=2h3CPBAhA`6JT1Eh74T14l6A\\LT42d5P29h24T34d2<X4;\\39d8>P2=`55d2CT4LX3=\\5K`16T1Bd19XDP2I\\19k2OPIc2Jd6W1Ld8g6;T36`2Mh21d37h32h2Od5Nd4<P5OX3E`4E\\9NhJ@TA`6MX;l97P5c9<P2`8Nl3ASGB\\","name":"Prze\u0142\u0119cz Przes\u0142a \u2194 Cis\u00F3wka"},"6900":{"end_start_time":10,"distance":0.283500,"start_end_time":5,"id":6900,"encoded":"MA<2>l<29;FT27k48k3Dk54[1Ao3Kg68c;F[;?_>Ng96[>3k","name":"Gorc \u2194 Skrzy\u017Cowanie pod Gorcem"},"16071":{"end_start_time":2,"distance":0.156100,"start_end_time":3,"id":16071,"encoded":"MAE=Gh;O348`2L_<1d14W<L`1Ck7Od25o73`","name":"Hucisko \u2194 Ober\u00F3wka"},"6022":{"end_start_time":175,"distance":8.786000,"start_end_time":170,"id":6022,"encoded":"MB4D0\\<343Kd;XIP1;S18d2@P5A`6=d69X8L\\88\\4O\\5C\\97d8Nl1Ck1F\\5JW80l7Hg;4l3G[5?P3Ag47d3Nk4J\\74S6K\\:6k9LXCISGNl7B_8Il;@g?1X<`1GP10_12\\12o1<\\1=c1=d3:W2Al2FW2Mh2CS41\\2Hg66h30k6F\\15_24T30W4C`2L_3?l20[1Gd4;o:P3Bo18c12o3SGgBh2=_29h28_2>h1F[3>P38o71P1MW5C\\12[2=`1;g18P1:_1kHo1W3:W16g27k1Og22W1Mk1<[9o1@gIP9Ac90T65_74T76c7:\\32g2Ed40g2Ed1Ao1=P1?_1HlCo1Ld5c2B`P3=\\1>X2Hh1:`5ElIP6OT>\\2KlDd22l18P25\\1CX13d5:P1=P15`ElJl1>X15`5@l19X80X1:`3Kh1Bd2:\\1MX1Cl1@hF`22X@W1@hLg42P2G_1CX9[1HX;X2Fl1Oh7Mh5K`BT5P6F\\1N`6Hl2G`5Id21P3Hd1JS1OTF_5GhOX66TC\\4IT32h5=h87h=gOX14W2EdLg1GdJX1D`Id2;d2MT4KP1HX4GX1HX7:\\2:\\8HP2B`:1l26d44`3;`3O`63d82T5K`6>X8?l;3P3<h5H\\IP2L`IP6I`6l79h2;d>Kd>o7FX1CW;0`A`4C`1<\\49`1ETBT21P2Cg23`5A_24h3B[23`9o1A\\18d1=d34P16T61T10`7EPJl8<h1>X4FP1Bd3HP30X4?T1I`6Hl=T61hd8<h7_5?dGg59\\3:W?4\\2FW>IT:P6N`LT6@T1ET6:`25\\5@X2KX5C\\2=`2=`3Hd34P50d;K\\7>h:6l6@T7CT3Kh2OP3Il1@h31`GS2Jd1JS4BX51k2Ed25o16T8gLT=h?P1Jh2:o80X7=_?1X5>o=7h2@c8:l1Eg66h8S<;d2Al8;`?d6;h25[5DP1JS2Fl7>S71P1Ko18PLS12o1Gc34c1@g5@W10_79S1Ck54[22W7:[2No90g2>g43k4@o4BW3FSCo47c=h6D_1;T4<c>o8;_35k5GS35k4NS3FS2Fk25o20o2Oc43W6ES25oCo3Cc3g3G[Ok57_3:W5C[3Ik50c3DW46[83o6A[@Mk72k@9W4Eo<Ec24g2G_22WCo22k@l80k6K\\3AS3Hd64W47d2<W13d1OSOlMo2>h1;g4H`EW3<T2@c6;h12o3@`5d2<l2=`97d=T3CdF_3?l1Hk3=\\43W2MT2CS1@h30k2>h2HS3<h1Jg48X2KW4H`4=k70\\1N_4@\\12[37h1HW34P51W7N\\1HW4H`96o>BX67o76P47c1Jh2Hg26d29S2FX4Kc34P46o4=l2Ec1JT2HSEl2Jc21P38[?P51k1>k21c1X63c23`5Ok:d2?[C[32SP75o2I\\50c39d9Oo60`22k8S9=W69W80WBg64k27W57_16T4NS2JP2G_2Od3FSBh:=g97d5;k6=P6:_9Ad8:k71P5Bg;K\\4Fc44`3NW4FP5Dc4M`4@[4Ih20o14X1MW2`40g12[6>k29S2I[F_20[GT1Hk1BP29g3Nl14k4?h1W51l4\\3J`2_2Al@kJl23_1=d1@S20\\1;g34d1Eg32T@W1Ml3T4=X6l4:hDc6=P19W48X41o<Fl36_8E`2CS5M\\4H_5GT3B[56X1=c1MX1Eg2:\\40S3Md21c14X24S15`46[1@T1A[;l5LS1MX8S3T2HS1;T1F[1GdK_1EhMo2Ch?c3L\\11g:8TLg48XMo1>X4Ig2L`1Jg1BP54o6N`4>_4Bl40g37h1LcOl6MW3Dl2Ec1I`2AW2AX1>k1?`11gOl6D_25\\3?W1JT2AW27l51W7@P27W1@hEk7`87g30X43W1Oh3=[2>h24g1Gd27k32h2CS4Ad1>W3E`;W1>X1:_5=T6kGTJk2Mh2=_8@`1Ko4NhOk27X1:_1JT3B[1Bc1Lc1=c2Kk27W3<S15_1LcP62[P6N_8S3:kLg46[@l33o10`71cM\\2L_1OTGSDP","name":"Szczawa, most \u2194 Kamienica, Pierzgi"},"16127":{"end_start_time":10,"distance":0.630700,"start_end_time":20,"id":16127,"encoded":"MA;K5T;NI=<\\3Hc1D_29SEk1?_3h39c6k2KW9o1D_;X1Lc6W1=cBS1Lc1Eg1Mk2Mg2Io73_1Fo17[23_6l33o3Fh2MS4LX5F_70\\4NS46\\47c1Eh4?g22l2>S11h2CS1Eg4LW8g3Cc14l3:W21d2HS1Oh4NS:Nd3Cc65`1:_2Fl7?[:P","name":"Polana Suhora \u2194 Obidowiec"},"8088":{"end_start_time":90,"distance":5.378100,"start_end_time":95,"id":8088,"encoded":"M=H>Hl<30=Oh3KhH[6@hOk4AP1>k1GPBS2HT34c4;\\4Oo2I\\2?o1Ld23_25\\3Ik17\\2Kk10`1<o18P2<W6@h90S5A`9<c4LX5LS6Eh6;S<9h<Kk92d?7_58T:GS2EP9H_2KlA:[9<dHLW>Ll12H_2:\\33o3Ah4Lk2AX4Kc2Al5?c16T1I_27lEW2HTLhNP3T2D\\A_4=X1Og1CXIc3>P1Ao3HP1ES3Kh1Hk2Od1Eg2G`2CgBTHoJX14W2I\\2G_2KX40g1CX3B[1;T3<g16T3Kg19X51W19X4Jo18d43k14l12[1LdGS2N\\8g22l9o1GdEk1A\\OW1Oh1Eg1A\\M[3IX1JS1@h=g9KP4DS8KT4J[56X59[7Jd=:W1Bd1A[2I\\22k88\\?9o48l98W:6lJJS28`8?kA`5?c1=d6Mk36`8Mc1OT:Co;l7<k3g5Ho8T8Go2@d5<_30l22k1Gd8hIP30k9\\5>[8T6<[Id4C_29T6OS1;T5EW1?`47c26d54[1I`2Jc1D`20o20\\1=c13P=g13d8hBT2`1JT1XLT7_1I`Jk14lC[12\\F_OX:c1LP4@[4@\\9<c4FP5OW4J\\2N[6A\\1CW2<l2KWGh54[Ol5OWGh50c1A\\4Ac1I`1Fo29T26P26d3:XDP48k1K\\3FS3Il61SJX3>c=h48k1k75[Nd2>T22X8Kh=h12o6X34cBh25[13d5d38\\2MT37T42P34d4<P2JP2>h23`DP2KlLg72X5=S5F`35k5NP<`58hP43X1;S3?l15_1MX1=c1N`3?W39d;Ao1JT5BS12\\3KSA`97c1Jh83oM\\1N_3Kh9:g5=h=J_AEP1>Og84PJGc3>P;Og2Kl:4o@X5>[1=d;<o1Bd<?oNP8E_3S4LWDc5Nc29SC8W16S;<o13c8Cc;k7EcEW8CcGg8Mc@W5?c@X2MSMo1AoGg1BcOW31_8g1CW@k4Ng;k?OW3<g18c69k34c96[62[27k4Lk1=c<;c1HkCJ[@W4J[>[;@g5dFHS3J`>GW9\\14k2@P7MS1N`5GSGh2?[18d3Ik@X3?Wd40g6W;8c1=P<4S21P8E_15`38o","name":"Kacwin, cmentarz \u2194 \u0141apsze Ni\u017Cne"},"16324":{"end_start_time":3,"distance":0.212400,"start_end_time":5,"id":16324,"encoded":"MA>@;\\<1DO?`95S8S4NgCo9Ng3Ag<>S50c","name":"Papie\u017C\u00F3wka \u2194 Dolina Kamienicy, odej\u015Bcie szlaku spacerowego"},"16106":{"end_start_time":25,"distance":1.399700,"start_end_time":30,"id":16106,"encoded":"M@LN7l<0I9@X<_20o1I_36_1Ko2Hg2?o6JS2L_4M_26c2;c3Mc1Og32g=S1FoLh1<oGT14W1;h1;S18P1>W10`2AW6lEkIdK_Dd>[:dEk4\\BS4\\>[1WLg3gOW3SH[c32gOX2Fk5<`1Ck3AT2;c6=d1@S3E`1ES35l22W2Mh33[4DT3Bo8MP2Do55d2?[4E\\17o48X2>S6I`47c8<T3Kg56X3=[36`38o3MP23_34d2Hg?P33o8S29SNP20[3Hd2AW66T43k70\\7Io;5`6OS87T3Go3Hd1CW18P1;SHo11g3O_LS3>c1>k2;c1F[1<o5;k4o45gGg70[49`7KW5M\\4Eo7Al32S77X45g64X5K_5F`4Eo?P30k=h3Bo26P16S36`8g5>\\","name":"Pomnik bombowca Liberator \u2194 Magurki"},"8541":{"end_start_time":3,"distance":0.202300,"start_end_time":3,"id":8541,"encoded":"M?NE<T<3H=GX=S6CX7_42d5c57`1l3>d3h3@`8g4Fd=S;Ld6W3CP3g6D`4[4Ih","name":"Skrzy\u017Cowanie pod Lubaniem \u2194 Pod Lubaniem, odej\u015Bcie szlaku \u017C\u00F3\u0142tego"},"6852":{"end_start_time":55,"distance":2.983100,"start_end_time":55,"id":6852,"encoded":"M@274h<2@4?P1A\\8Nl2CT80l39P9:T1K\\9Nh?c88\\1Jg9Gl1I_2KX5>[26P45g2Mh2Kk3Ah3;_3Hd3B[31`1Jg6@TGg53h1Bc46\\43W6MX30k2FX5=S2:\\3?W29h66S2Fl:;k37h3FS39P3;_3Dl3KS23`2FW50d4IS4J\\1Ao7JP25o5=h2Fk7<l27k30l3E_1Oh10_3?XLg9;\\1Ao::dLgE5`1X87hH\\40T1Bd5K`2`4M`11g80l39c;@h46o98X6>k:Gh21c1HX42c4:h69k52`2B_2Mh2KW5OX1F[8?X17o;D`15_C7P14k7;P3S1F\\1WGh26P8<hId7MT1OT<0\\H\\:IPCo;JhIP90T18d51XK`21P2_28`1ES<2l9o4Ll8h3E`1Jh58T19X93l3S6>X6W9GlC\\7D\\A_4=XP5:d>[B:l2AW:8h2<W62\\42c3Kh8g29h2_3;`3L\\==\\2EdD5PJX<B`OW:8h8h6ETEl6?`OX46\\A`<<l1MkB5l6k;Cl6W<5\\?P6<\\2EP7:\\2EP6Hl91\\A7X","name":"Runek \u2194 Polana Kud\u00F3w"},"16073":{"end_start_time":15,"distance":0.940400,"start_end_time":30,"id":16073,"encoded":"MAN=Md;O:8Bh47c8HP1A[4@\\EW3<hd6;T7_6JTJk4>`3Kg9=XBg1OhEk2;PC[23`Dc3<T1@S4:h1Lc2Od1?_2KlLg1Oh1Mk13P1Lc2@d18c4Ad1>W2B`4J[4>`3AS36`2KW2OP1OS44`1<[52`14W23`1>WNc1F[1Ck23_3>c2Do5M[5Co?JW3:k?>[2<k9;o2>S82S2L_41[2Ec3<g2@c29g2N[18c3:kBS2<kJl2Mg1Hl48k32h28_2B`5>[4O\\","name":"Koninki, Zagronie \u2194 Skrzy\u017Cowanie szlak\u00F3w"},"8545":{"end_start_time":3,"distance":0.113100,"start_end_time":2,"id":8545,"encoded":"M?LN@`<3O2JP1Mk@k?cJkH[Co1Eg3S1<o28_1?_12o@W12oDcBgJk8g@X9Ac=T2Oc","name":"Baza namiotowa Luba\u0144 \u2194 Skrzy\u017Cowanie szlak\u00F3w niebieski / zielony / \u017C\u00F3\u0142ty"},"16978":{"end_start_time":70,"distance":4.535000,"start_end_time":100,"id":16978,"encoded":"M?5?Kl<1K>CP48W2Ch;6gK;d65_?1l>o15`1MW51l@I_1F3X37S:9\\2;c46\\K_NP11g8h1Ao;k1N_12o1K[18c29g17o3?k23_=>c80k9?g2Jc3<S10_HDS56k58g3S6>W1;T6N_1Eh6<o6l;>W4M_5M[2:[52_JW41o1W6W14k64W1I`3=[12\\1?_=h@k5d43k1;T30W1F\\2:o1;h2>S1LP2Ec4\\43W2Hh5<_3DX19W1=P29S40h1Og30l2I[1Oh47c26P2KW2N\\32S5>\\21c6<\\1=c54\\12o3Ah2B_3Ah6?_54\\4?g4J\\2Kk11h1OS@X2KW2Mh5<_82T2<W2Jd59o2G`2Kk1>l23_2Jd14k1Hl2>g1X2No17o2I[JW3:WF_32SOX3Hc2HT2Kk3CP3Ag3FT6;S4?T56k5<`4GW64l45S47P4Ng2;P4Gk3G\\5?c58T38[45T14k30l1@g31`1Mk2JP2B_18d2CS3T5A_d4Jo1Bc:1k3IW5:c1;S5Jk43W29g37g2Do4C_1Og42c1OS3>c3Lo3=o5GS3E_6F[3Nk4Ng2:[77W4J[48k2Cg5Mo29g3NWGh33[Ok38[Ol2;cJl2I[14l33oDc4IS1Ko2Fk1Hk36_1Og38o3g3<g1Eh3<g2Mh3J_5;X3Go69X46o5Dd49_5BT2:[42d>o3O`LS4C`25o4Fd40g7HT49_5LT40g53h2Fk23`3L[@l4O[:P58S=g5@W18d53g11T59o1>l40g11h2OcDP32S@k32S9o2Kk1ES2Do1I_2KkJk3?W1;h25[1Eh3:k1LP3:k6W1K[11g1Ck30k1D_43W2>g69W38[6F[36_4M_2G_2<k2Do6k29g:P2:[3O`4@o8NX3@_@9l3?W7D\\1;g97P2D[6LP2>S2Fl2I[1Fo5H[;Gc3<g:?cDP;Ao16g43k50c20o2DoK`20[6l3Fg3T35k@k5;W6k","name":"Frydman \u2194 Rozej\u015Bcie szlak\u00F3w czerwony / zielony"},"5821":{"end_start_time":10,"distance":0.558000,"start_end_time":15,"id":5821,"encoded":"MA?5@l<28?EX22W19l34c1?`4GW1JT5Dc24h73_2KX25[27l1Lc2EP5Lg3=\\3:k28`;7[8Hd7?o7>T64W:<`6=c7>h5Ic53h3Bo41\\75[7>h","name":"Gorc Kamienicki \u2194 Skrzy\u017Cowanie pod Gorcem"},"16091":{"end_start_time":20,"distance":1.461300,"start_end_time":45,"id":16091,"encoded":"M@7>H`<05J<X2Hh3AS17\\2>S2=`5EW31`3<g3>d30W4Fd7@c20\\1Lc2G`>o4KP18P45T1F\\2AX>o42P29S4FP4Ig76d66S24h16S1OT9o21d1=P1Jh1GP3KT8;`34d5<`4Kd62\\1Jh1?`2EdLT29T1k2MhDc59\\29g21d>[1JT>o2I\\BT3?l47d1>X2Ed92PCAd23`2;P2Mh27X3Fh1Oh7L`5=h30XOX27l=S1=dLg46\\48k5El4@o4Gl3@_2JP17o56X6W8AT1N`19XCo4?T46o1Ld1Fo71d2N[16T3g1A\\;l58h2<l31`2;P;N`64l2<XA`35X1k60`1<o32h2D[6Ml4Ac","name":"Ch\u0142apkowa \u2194 Odej\u015Bcie \u015Bcie\u017Cki edukacyjnej"},"5825":{"end_start_time":60,"distance":3.919100,"start_end_time":115,"id":5825,"encoded":"MADKMT<2OO9hJW15_JkOW58S4Ng17o1>k1D_21cJk14WNcM[1F[1D_31_2Fk1N_1?_1JS16g1:_11gJWF_H[NcJW18cF_1>k16S37g14W38o18c3?W1<o3;_Gg19WJW14k41[3KSJW1<oEW1D_A_22W@W4Eod2AW6l19k>\\19WLT=g17\\8g1;h3S1I`2`28`7`83\\3gDd7_Dd>[IdLSNP1>W1:`2HgOX27kDd24gGh3Dk?d1@SEX1>W<`10_8hNc2`12[3S17[JW37gLg37S1A[6I_1A[5MoLg2?[62o<I[LS2=_Ek27kH[2=_Bg2D[c2Kk6X2MS7`20o9\\20oP1Eg<_1D_2Fk;0_>[1<o@k12o4J[5Dc:c19k2_1OS5d29g16h6F[>\\21c6l1MW2`1MW2_1K[18c73_d50c2_3Dk5c22k;k1K[@k2>g3Ag7L_12o2HgK_2Mg8S2Mg9o3O_1?`51W23`4<c4?T54o13d=S2<l6X4:T29S22lMo1:`7_18d<`1EhGT17\\12\\12\\IP1Cl9\\1MX=h1ClIPLT1>lGT21d10`2G`18d29T19X14X1LP5P1>l15_1Oh11g3:X4[14X1BcGT2JcNd5=g1BP32S<`3FgGg51k3S7HSEW7KWOl6>W7_:Bg6k>Bk1CX:1k:d82g<`<<W;W:Dc2_54o5@k>GW17[5Gg2@d;1SGT3Fg8g43W1Gc77W29S6Mk44_89c39c5:c30W3=o6<[?Dc35W85k1N_7FW2MS53S1Ko4BW11g3?W1Ck53SLS:1W1<o6Bc25[9;oJW44_1Jg2Kk1Ko3<g:4oAEc4=W59o22W2D[51W46o21c2>g13c1Fo1Gc40g15_3DW62[JK[BS7;c16g6Jg7_2D[2_5@WP4@[1K[8>c2;c8Ik4=k61SGS2Ak2_4Lk8S=J_P3CcDc45g1Jg1MW31_1D_OkOW53g5BS4:g62o@k18cDc2Fk8g39c18P:1k2`3DW1:_<@c1=c3G[1GcOW25oGS34c11S6ES17o2Kk21c<>S;2o53S22k8Ik3G[6Lc40g2L_2Mg26c2Io1>k3AS1Og31_2@c18c5A_=TMo2_10_Jk6;g59[4[1?_>[NcC[M[1:_18c11g@W","name":"Zasadne \u2194 Gorc Kamienicki"},"8574":{"end_start_time":80,"distance":5.209100,"start_end_time":130,"id":8574,"encoded":"M?70:`<33F8d1OT@X:P2`3Fh14l4Nh2@d2Al29h5;X7AX17\\32h2@d:8h23`87T1OT3J`8T:P3Ah4@\\3Il2Mh42P1Ml30lP4Dh1=c3NX2Mg6=d4C_6GP6<[7>T79S3L\\3Hc=2h80W3<h16g5Nd14k1CX3gDd1W4O\\Gh5IP2<X40h1MX7CT26P3B\\El>Fd2EP9o2I\\93X13d26PGh13P2JP@X3Il4@\\7;P?8hH>`4AP7I\\65`8Nl1D`21d27l3:l3NX4J\\4BX3>d7Al62\\61h1Bd4@\\26P3NX34d34P3L\\2Mh4Ih7Kl61h8Dl8<h51X9GXNd11h5Dd6;h3FT4:h6K\\:NdDLhD:d32T3DX25\\2KX:1X@@h1;T1F\\:Gh9NT>Ih7JP:K`83\\5Id18d4E\\d19l@X36`2B`3?X1D`72X57`6GP90h3MP6A\\2Hh38\\7FX5<`3NX1Ld:1X1=P79T23`3?l1CX4:h=T20\\C\\7G`3J`5>\\1Ml;8P1OT41\\d4NhLS<JP1k8<T2<X40T1Jh1D`1@T;Eh>GX17\\26P1Jh:5d35l9H`2B`3O`9;\\:Lh3@`2Mh4H`=h5?PLg4C`1@g4=l2Fk23`38[2Od37g@MX5JW84d43k8Fh3Hc3NX=S80l2<X48X24T5BT1@h2>hc1A\\8h<<X24S6ET4<c4IT1HW2B`1;T4Fd4J\\4Gl7OP2Ch3B\\1>l1>l58T68d3Kh2@P23`Jl3:l6l4Fd11g34dGT1:`18P3L\\39P2@d2<l3:l1BP2>TP2I\\11S49`1Mk3Md2I[1>X1>k4DT4M_6MlGS8>d3Ag8>PJl3E`18P4Ll1;g4J\\1Lc2I\\NP3L\\66h6Eh7N\\5;l9:h31`9=X19l7D\\1Cl4NT39P51X5@X5A`2<X5LT2>h92P2OP7L`1Ld6Jh","name":"Kluszkowce \u2194 Jaworzyny Ochotnickie"},"9260":{"end_start_time":3,"distance":0.141500,"start_end_time":2,"id":9260,"encoded":"MB153d;O874\\38\\<>S29h5K_30l7:o21P54[JX2Oc","name":"Orkan\u00F3wka \u2194 Orkan\u00F3wka, kapliczka"},"16107":{"end_start_time":95,"distance":3.550100,"start_end_time":55,"id":16107,"encoded":"M@G9Hl<0MJJl4J[I>\\14W82hJW6A\\13c4C`1;g7D\\5JWK3`6JSG?lDc54\\1Eg61T1@g6CX1=c93XC[8?l1A[89P16S47d1:_39dDc62\\14k5C\\11S41\\<`22l;X1@hA_2OP9o<:\\8g4H`GS5<`<_3O`1>k55d3Ik>=X2Kk85l2HS5C\\3=[5Id5Ic8>dMo2B`43k9M`35k7OP15_3Kh1Fo5H\\1@S82T2Fk8HP2Do8>P2:o54\\32S8:l23_52`19W5C\\1Ao9=X1:_8:l1Ko:Nd1k43l=S37T3SJl=S6I`15_;@h>\\5C\\5d3Cd>o62\\1:_9ITA_84P1;g9Ll25[:JlC[5OXOk4>`12o3>d9o30X1>X1ETIP31`=T45h<_44`Gg36`1F[5<`20[3O`2?[2Mh13c2Fl8h4LX1=d8>P3NX?9\\1?`7CT1LP;Ml10`5>\\1k5=T9o3Il5P19l3h13d17\\2FlJX11hF`LT1D`18d26dOl1@T19l1Bd>o4H`31_39d6;S1<\\1:_1:`;W1:`;l1=PNd3Hd53h::d=G\\22X7;P6l2KlEk28`1MW35l2HS61T;k2Ch=T30l;k3DX1Ao59\\3?k93X1:_23`9Dg:LT4IS52`4Gk4LX33[3E`2@c5JX1CW22X1Eg1Oh3<S1GP4=W1>X2Do24h3Go6Eh3@_;6T3g6@TPDd16T9Dh@X9:h9[4Fd1Ck5JlMo56lLS37h1D_3Md2>S26d1:_1Bd1F[3>d2?[5Lh2Fk4BX1GcIP1Ao26d6k1Ml:P3B\\5d39d19k57`24S5:d2Ak5IP29g3Cd3Lo3Kh2?o3;`3KS85l","name":"Magurki \u2194 Jaszcze"},"45":{"end_start_time":40,"distance":2.341000,"start_end_time":40,"id":45,"encoded":"M?6BI\\<3AFKd=TJWLh29g5d2Io14k3?WBS1ES2Ak6>k12[27W1ES1ES20o12\\45g2>h1Hk4;[1D_4BW18c4C_Lg4IS>o46o4[4?S3h46o<`3O_BT3CcK`41o3FgHo26c9[1>W:P25o1@h62[6@T;@g::d1N_8>d5OWO<\\5JkO8d2?[8Il7EcC3l29S4>`9C_?BT1Jg3Dl4DS:=h2KW5A`5Bg9KP1A[3=\\1>k4@\\2=_:5d1Jg7L`1>k4O\\2HS71P5Ek:0P5GS80X6Ko:LT1Ck3AT1=c3?l1Jg5JX2<k58h3Mc7Jd2Oc4LX85k:JX4M_6?`32g33\\58S37h11SLh18c25\\82gC1\\1;g1MX13cJl1AoIP49_1A\\7>S1D`6ES18d7MS10`5;kDd19k4\\31_:dA_9\\4@[29T20[10`4?S:P52_9[4Ng=S5Nc3hDc3g2Fk1l1@g:d8g8TLgId;A[DEk","name":"Prze\u0142\u0119cz Snozka \u2194 Czorsztyn"},"10269":{"end_start_time":10,"distance":0.371100,"start_end_time":5,"id":10269,"encoded":"M@;4B`<25HAT9@\\AKlEl11h27l3;`40h2JP7AX3Md3Fh1Ml2Hh1>X5Bh1@T9Dh1CX2L`13P34d1@T2CT1Gd1LP18P","name":"Ochotnica G\u00F3rna \u2194 Ochotnica G\u00F3rna, skrzy\u017Cowanie"},"10272":{"end_start_time":65,"distance":4.182300,"start_end_time":115,"id":10272,"encoded":"M@BH2\\<397<TBgC\\@2o7HT>DS9J\\=Kg:LT2Oc26P71c1MXA0[1F[4IS@k2Ak24g5Ek79S3IW4<c7>S5F_3O_1>W5Bg16g4Ac3Fg3:k5BS38o72k3Lo74S44_3B[64k2Ec7<W2N[4:S2;c72WNc1Koc3Ag5P70o4@\\2@c1Cl5EW2KX:0c4>`7HS:P5A_5P5Dc39d18c@l2Ec1k5A_1<o2Mg=g29g1=d3=o5Nd25o4@\\4H_4=X58g1@T2Oc1Ld60_5LT5F_4<P7@c1OT77k9o8AS3Ag51W6k98W=T5=g4=X25o=T6;gK_82gNP96[85X57_1I`4=WJl3KS21P1Gc5JX1l8MPA`>;\\19W82T32S74T4C_5Dd38o1I`3<g3T3;_22W26c2:[54[4Oo2>S3;_;9k;@g8O_69W2Fk2@c5Jk45g;6g5Ek7Jc5Ho6>WJW5Nc9[20oP75o35k:Lg5=g55c=g4Gk22l5GS7Al4=k8FT40S9KP46o6@T27k2<l1MkH\\7CS1?_4J[=T3L[Co32S2<l3NW57`3AS23`2>S1;T7Mg;X35WF`5Ho3O`3O_1CX4LkDP41[2FX5K_1Lc4M_1X54o48X47cOX2>S3B\\2No1=d5<_:P5Jk2Fk30W1Hk2<k7G_2Jc5Ek2@c6<[Lg5Gg31_6=c2N[36_50c3Lo1OS6X1OS2G`1;S35X42c74T2Mg1OT40gGT3<g1;g2KW3Dk2B_56k2IoK_2AW2_54o2D\\","name":"Ochotnica Dolna, skrzy\u017Cowanie \u2194 Morgi"},"10273":{"end_start_time":75,"distance":4.501600,"start_end_time":70,"id":10273,"encoded":"M@<LIl<271DT1Hl26P22l2Kl2EP4C`5?P9Ll8>d?JX3B\\9AP1GP6Eh1Ld97d1BP64l1Gd4FP61T=Hd27l6Hl3<h::d4<P=B\\Ol3IX?d3Kh6l41\\P>5h3gB9P9\\50P8h3G\\:d2AXBh39P16T4Fd19X4?h19X3AT44`8?X35X6>X2:\\5Gh1<\\3>POX3>dLT36`?P3?X19X??PF`7N\\@l5?d4\\37h5c2MT:c1Ml12[4:h2HS97d1A[4LlF_34P6k21d2_36`4\\3?X?d3G\\2MhC8X;Ld2=Hh=h30l34P=Hd5ElH1\\1<\\6Jh5K`112h1;T6ET2Kl>M`32h@HXJX47d2Al<3`H\\3Cd@X3L\\c3Fh9[39PIc3MP2;c;;h=g39d3g2CTC\\61T35X7Al54\\95T27l4GX13P3Cd;l2HT6l30X1W2Od?c3IX1CW6A\\1OS6ET11S5Bh21c<>h1Gc=Md2@cEOT3CcKG`4;oH?TGg5JX1CW@CX8g3IX=S2=`25[7<l20o64l>o1=d3;_9Ll2:[76d1?_6<\\15_71P11g;2\\4o61T:P8?lId7N\\1F\\F9h17\\E0`=h6@TC\\3=\\El2FX12\\2MT1>X39P1Jh30X27X2EP2Ch22X6Eh4DhLTJXBhJXEX1;h?d1N`5P1>l4\\24hK_3KT1HW7JP5cLT9o1Ohc1GP16h69l1<\\6CXOl3O`1Jh50d5Bh<>T1Ml41\\27l4?h2L`4KP<L`DJX:BhAFl97P@0`8HP?:d22X3AT:6XA7l7L`<9h1OT39d31`58T25\\3>d","name":"Ochotnica G\u00F3rna, skrzy\u017Cowanie \u2194 Ochotnica Dolna, skrzy\u017Cowanie"},"16156":{"end_start_time":95,"distance":4.261500,"start_end_time":65,"id":16156,"encoded":"MAF36d;NIMFl26P1;SNd1Bc>\\1Ko>[2@c28_4=k7KW>=k7Do?GS61g61SA6c5Lg8FS49_AG_<8_82S34c4?g1Ko5JW45S24S1D_Nc3?WGg?A_1X:1k2Ed<8_42d>7c5>\\>8k84P?<_14X4GWC[74S7:o12BW2G_6HW4C_59o2No25o4DS;k6@g33\\EBcB7h5Ho69X5BS7EP3AS73`3<g=KT1Ao34P3<gId93W21P53S3Hd5Co66T=?kD0P2Cg18d1Ao14k2?o6MW1;g90S12o;>W8gAFWDP<L_=T<Ak1;g>;[1@S>O[=S7Kk4APBHc>o40g1Hk2;c4<cGg8Hc2HT@CW1Jg4@[Ek46oP;2[3O`3E_5d2D[Ic3<g:P80k6?`53S6GP58g9Bl7?[;F\\45S4<d2>SM\\2Oc@W37S1Ko16S6<[3Dl:C[1D`3Hc3KT7B_4<d@8c4O\\8BoEJTLLo4@\\81_5El38oBHdA5[32T2Hg2;P2?[2@d35k1ET26c1ET5c9GX87T4?hGh36`2Al3Cd2`9BX5OW;?`8IW87T9Dg6K\\52_9LlHoAI\\5EW1MX1I_16T14W","name":"Skrzy\u017Cowanie przy polanie Jaworzyna Por\u0119bska \u2194 Por\u0119ba G\u00F3rna, pocz\u0105tek szlaku spacerowego"},"4200":{"end_start_time":30,"distance":1.763800,"start_end_time":30,"id":4200,"encoded":"M>L<D`;O>36`Nc31_1Ck2Hg18c37S16S3L[18c4Fc;W2No6W3Kg5c4;[Jk3Kg1<[45S1Gc3O_2Jc2Hg2<k1Gc19k1Bc18c3NkC[3L[7_3@_?c31_1Ao5>[1Eg3O_1K[41o21c5GS12o3HcA_3AS2>g3L[16g3:W3h37S18d;>k1Bd?9[26dAG_26PACg1N`=3o2ChAMgK`43k20\\;Og17\\8G[13P6Mk31`@7[22X>Oo2JP?>oC\\41[1Hl>1o9\\70oId4Bk3MPEHW47dBNk7Fl14k3MPF`1Ld>\\1Cl<`1<\\7`1K\\2`1Ld:c65`Mo1I`=g1@h13c16hOW1>l1Bc11h1<oJl1CWGh21cA`2=_:P4DSEl8NW1:`=8[1;T<9S6X23_5d1I_5P2B_2`Ok1lMo;l46o","name":"Cisowa Ska\u0142a \u2194 Gronk\u00F3w"},"8543":{"end_start_time":10,"distance":0.825200,"start_end_time":20,"id":8543,"encoded":"M?NCCX<3J48X3Go9H`16S3NlLg33\\BS20\\Ho3Md14k3L\\1;S45h2D[4>`1Jg1Ld25[24h41[2B`1;gA`1Ko1>X8IW3MP4NS4[4IS1Ko48W1k4Jo1Bc7;c3AS1@SC[@W67\\@W4J\\9o4H`Dd47d40h:1X1Jh5GT18d5:d5d4>`1X5LT:c2B`C[35X@W4=lCo2OdEk4Dh6W2D\\Co45T1>k5<`C[47dIc3DlA_29h=S2I\\12[43l","name":"Pod Lubaniem, odej\u015Bcie szlaku \u017C\u00F3\u0142tego \u2194 Skrzy\u017Cowanie szlak\u00F3w niebieski / zielony / \u017C\u00F3\u0142ty"},"16093":{"end_start_time":1,"distance":0.051800,"start_end_time":1,"id":16093,"encoded":"M@>9O`<05KNX1Jh2?[26d5Bg1ET2Cg","name":"Odej\u015Bcie \u015Bcie\u017Cki edukacyjnej \u2194 Odej\u015Bcie \u015Bcie\u017Cki edukacyjnej"},"16053":{"end_start_time":65,"distance":2.692400,"start_end_time":40,"id":16053,"encoded":"MAH@O\\<16A<d11g2@P@W3>d@k1;hMo49`?P4Ih32T?Bh1<\\6OhGh58T1;h6=d2@P9=XM\\6;hP9FPM\\8J`H\\6@h5c54\\14k7>h>[58hM[42d2B_5>\\1?_52`14W44`1HW3Dl35W4IT2Io6CX21c5C\\1F[4?h47c74T2@c5OX38o4Kd24g4LX1Og45h2Ak31`2?[1;h7D[13P4C_P4C_3S2=_4Nh2:[:6X35W?6l13c8KTP4J\\13P5<`IP2?\\d2Mh1@g3Kh3:W6>X2No6LPGg4M`7`5A`14k34d2<k1Eh96[IP25o1Eh5?c:Lh3Dk<L`3Mc<2l14k82T2<W8Ah22W8NX1l4E\\4o49`11S5A`13c39d5Mo<3`2<W7?\\1Ko6F\\1ES5H\\29S31`34c3;`1CW3O`1<[6HXJW9DT=S<6d:c9FP12\\71P2KX7?\\4<d5OX34P1Hl8?l46\\:NP8FT;5`5A`59\\4=X7Od75\\6:_>o24S27l3Md68d43XEX47P40h4<P5:P11T67o4Fd62\\5OX7;P1?`1Jh1Cl46\\1CX3B\\F`1A\\1@T13P","name":"Polana Podska\u0142y \u2194 Trusi\u00F3wka"},"16607":{"end_start_time":5,"distance":0.343800,"start_end_time":10,"id":16607,"encoded":"MAE3C\\;O4B9P1JT6LP1GP4Ad4:h61T3G\\38\\14l1OT11S3Fh2MS1>l4NS3S4;o1ET27W1LP2:[2D\\1@S4?h35k39P2>S5Ol3FS3:X2EcHo","name":"Ober\u00F3wka, odej\u015Bcie \u015Bcie\u017Cki edukacyjnej \u2194 Ober\u00F3wka, odej\u015Bcie \u015Bcie\u017Cki edukacyjnej"},"16055":{"end_start_time":20,"distance":1.145300,"start_end_time":25,"id":16055,"encoded":"MAM9KX<1I29h18P69k22X8ASOl3E_1Gd53g3IX9>_22X56WK_16S4[2DoLT3Mc9?hJKo14l66g2B`7HS2Al>1o2_3E_Nc20o7=_2;c2=_16S1K[M[4:g@W3@_9\\48W;X1=c1@h<?o=7T2:oOl14k3S1Ko4[2<W6W4NS8S1@S<_F_5c4J[44_2B_1Gc2Cg13c>[6W29S4o1K[9\\4H_2Hh2G_1JT1:_1X2;c2MS13c2KWCo2Jc5P2>g10`24g@X2Kk3S31_=T3HcM\\3Hc1;T44_<`2Mg13d55c7`2G_7_3E_17o4Kc2Cg4H_20[28_","name":"Rzeki \u2194 Rzeki, Cyrkowe"},"16056":{"end_start_time":35,"distance":1.854800,"start_end_time":45,"id":16056,"encoded":"MAKD3X<1D65`12[4DgOk4O[BS6@SK_60_10_7AW1;g67o19W3O_2?[53g1<[6HW1Og4GW1>k40gLS4E[1l4FcLT4NS4[52_10_40g38[7Ak1Fo42c2Ak3<g1OS24g1;S2L_A_4C_;k45g1<[4>_1>W3>c2>g4E[35W4J[1OS1Ao2HS2Jc8>c>J[2;c3Ag16S38[1Og8LoH[:Jk7_>0g:d9?g21P95g19X80WLT?K_2Kk>5S=S74S8g3<g1Ko:;k=S<FWEX>?g5c59o18c;Ko=g:Co16g8DkOl82S19l6@S;l5K_d5OW14W77W1Mk5;W45S?OW1ES7AWNc3>c9DS9?g33[42c5:c5:c3KS4Ig58S5GS5@k:3S","name":"Rzeki, Cyrkowe \u2194 Polana Podska\u0142y"},"16141":{"end_start_time":60,"distance":2.275300,"start_end_time":35,"id":16141,"encoded":"M@BEAT;O@ME`4>`1Cl2AlM\\8>P1ES5A`4[30XF_4Bl46o32T17[81`1<[5?d29g5:dM[7JP1l69X1>W4LX1HW31`6l4KP2:\\37h3S2AXOW4=X1?_;7\\=h@1T23`;4X4H`23`34dNd3Nl2AX6BP24h6D`1<\\5M\\OW6>X1?_4E\\38[97P33o@Hl11S=4d4Ig4Kd45S44`59o6JT8Cc9IT3J_4BX1F[4IhNc6=POk<9h11S7CT:d3O`19X3O`C\\4C`10_3>d1F[2Ch1?_49`A_42d17[3>d4DS89P3:W65`12o3E`C[57`1F[3Hd25o1Bd3E_29h2Mg1Hl3Ik31`33o22l27k3Ah1Jg2Jd10_3B\\Gg3Kh1=c34d25o18P32S9o3AS:P20o2Jd10_4J\\El5:d@l4GX16g49`21c3Dl2<W34d2Hg54\\1Hk4@\\1MW49`20o6MX27k4C`2B_4J\\2:[6?`22W4M`3B[6GP1@g22l2:o21d17[19l11g26P7_1;h1k54\\;l3KT","name":"Tomusiowa \u2194 Odej\u015Bcie \u015Bcie\u017Cki edukacyjnej"},"121":{"end_start_time":35,"distance":2.204300,"start_end_time":60,"id":121,"encoded":"MA8@JP<07N0P22X41\\32h32T99`<D\\20\\39d40h97P2<X3>d1Jh3IX22l5Dd1;h58T34P7AX1D`42d21P5;X17\\6<\\3CP8FT23`50d1F\\3E`1OT4J\\47P5>\\21P42d2EP42d30l6Oh=h5?d=T37h15`2>h6MX;;h3E`42d27l3B\\2B`14l4Nh22l42d2Mh51l5EX4GX31`42P3:l3Cd2Jd31`5H\\8;`>8X45T6MX38\\5Nd6Oh=DX32T4?h38\\;MX68PA0\\68P?0PLT8IX4\\8CPC\\5Nd27l4NT2KX68d13P63P1Jh;Cl21P90TEl3B\\JX4C`35l<L`JX42d5c1MXIP64l3Cd93l2>T45h25\\4C`2KX3L\\2@d49`3:l4<d22l3Ah2CT3E`1;h4<P18d3CP1Hl1Hl2B`=T7N\\=h3G\\18c1Hl14k1F\\6W1BP14l18d2<XJX3FT1=d43l4@\\:EX1l5Lh6X6MX>[4Ad","name":"Prze\u0142\u0119cz Borek \u2194 Pustak"},"16062":{"end_start_time":20,"distance":1.274200,"start_end_time":25,"id":16062,"encoded":"MAG83l<1G83X21cP1EgJk1ES1Bc7>S96o3Lo4<c9Dg8Mc;6S8@_;Eg5Mo67o2Cg6<[3>c9;o42c;?_2FW3J_=T2OcCo4:g6l2CS1;g1;S11S97c62o38[2?o19W11g1@SP20oDP5Dc1>l29gGh29g3S23_3T>GW8=[2D[P2G_3h:9o31`1:_9\\1CkP@4k1A[1Eg;k1EgH[<9S8=o2MS16S2G_@k<Do4o","name":"Trusi\u00F3wka, odej\u015Bcie \u015Bcie\u017Cki edukacyjnej \u2194 G\u00F3rska olszyna bagienna"},"6019":{"end_start_time":5,"distance":0.383500,"start_end_time":5,"id":6019,"encoded":"MAC1Gl<43BF\\;W<_1ES1JS20o2:o8g:c:c;k72W9=W:Ho>>_2<W3Hc2Kk4=W19W1Lc2Fk54o11g25[4?g9;o<_Gg1F[3J_8S?c=gJWHo12[:PBgLh1GcOX1Lc1;T2D[IP2L_10`1Jg","name":"Kamienica, Pierzgi \u2194 Kamienica"},"16065":{"end_start_time":20,"distance":1.337000,"start_end_time":25,"id":16065,"encoded":"MAL?OT;O1:KP3;_3Ah5Bg3CdE9W;9X5H[2Hh61S1K\\66S1N`7=_30X16SC\\6Hk40h6Bc2Jd4=kDPBIkEX5<_Id7No2;d4DSIdDK_4O[1>W9[1CW:cCBk40g1Ao9o22k=g4Ng1I`9BW20o5Ek9[6HW2ChC=k<4hE7o<I\\","name":"Koninki, skrzy\u017Cowanie \u2194 Hucisko"},"16070":{"end_start_time":45,"distance":2.841600,"start_end_time":75,"id":16070,"encoded":"MA@DFX;O663T44_GS2NoBg2;c3S3:k1Oh2N[GT32S1;g2IoEW48k11T4E[6l30W14l2Fk2;d39c1=P3:W4?T1JS3>P2KW3;`6@g:El57_90T2MS5=T3NW4Ad2HS39d1F[42d26c3J`1Ko47d1F[3B\\1I_62\\=S57`2`6F\\C\\4J\\4\\44`14k6>X22W6CX1A[3O`1K[50d1Ao3E`15_4E\\1F[4<d1?_5>\\M[5DdOW41\\A_36`Gg3IlIc2Jd14k3O`Mo41\\Dc5C\\3T4DhDc51XDc44`2=_29h17o1Ml14k3Md1Gc3Md1D_48XMo49`24g58h1OS46\\3:W3Fh37S41\\2:[42d53S6MX3IW4:T2D[48l2G_27l43k3B\\4?S40h46o2L`3;_NP6@S3L\\27k15`3<g41\\3G[3<T5GS2Ch7@c1=P46o=h2Cg3g2AWA`4Fc3:X1ES13d4:S4Kd37SGh2AkHo2?[2;P2Oc38\\4Ac87T5Gg9Gl4Ng9AP1JS37T2Io42P3:W41\\2:o3Cd2:o1>X1@g1?`22W2Hh2@c1Ml46o2Mh33o26d23_:P58SGg2Oc1<\\3Go3HP56W4GX2Do2Fl1Ck2@d1Ko1>l2>S?P1=c1;hLg1Jh1ES2Fl27k2Jd23_1Ld2?[?P1JgDP1D_1Hl1Fo22l1Mk1D`29S1@T38[1?`3G[1BP2>S1LP2Cg44`1@S1@h27k11h2?oOl23_1Ml1D_2Mh1ES2B`1:_5A`1=c2Ed1OS30l10_3>d1F[5EX1I_3E`2Ak34P1<o1OhGg1=P1I_39P43W5Nd5:c6>l2I[24T","name":"Sza\u0142asisko \u2194 Skrzy\u017Cowanie pod Czo\u0142em Turbacza"},"16077":{"end_start_time":25,"distance":1.634500,"start_end_time":45,"id":16077,"encoded":"MAK>CP;O;@0PK_1N`26c3=\\3:W2Al3KSK_5K_3L[2Fk2Jc77k2G_58S5Gg3@_34c2CS1Hk1OS29S2Hg5Lg20o54[2@c2Cg2B_14k23_:P20o43XH[48l1Og;JT1CW43l1Jg29h1F[1OhA_3O`4[7:\\3S74TBS;GdLg9:T1?_6JT8g:1X13d;OhGg4H`32g3Il4M_3DX4GW4:T40S1Oh3G[DP1Ko18P5A_4Nh5>[6W2Jc2KX2CS4Nh2?o1Bd2B_:P25[1Eh31_7D\\42c77X3Kg5;X1@g2Ed29S9Bl1Ao:LT5P=DX2Io>O\\Gg9Nh1Jg7=`3<S8IX27W37T4BW3>P1K[4NhK_94`2Fk69X1@S93l","name":"Skrzy\u017Cowanie szlak\u00F3w \u2194 Pod Turbaczykiem"},"6848":{"end_start_time":10,"distance":0.494100,"start_end_time":5,"id":6848,"encoded":"M@NAG\\;OBODT1l2HTd?PP2Od5P2>h>\\2Ed=T42d7_2EdC\\1Cl6l2L`:d1Jh13P27lC\\27lH\\44`;l2MT3g3?X7`4@\\8T2ChEk6LP9\\2@P8T2Mh2_2=`M\\2<l19X3>d@X4;\\=T3Fh1k39d;l74T:d6ETBh3:X8g48l9o2AlHo37T1CX:OXId=3\\","name":"Turbacz \u2194 Schronisko PTTK Turbacz"},"16079":{"end_start_time":5,"distance":0.259400,"start_end_time":5,"id":16079,"encoded":"M@N?Oh<08>:`c7B`BT40T2B`45h2Jd2AXK`24h4\\2L`C[4Nh14W46\\24g46\\13c30l1A[3Cd4;o97P@W2L`9\\2Ch11h1BP","name":"Polana Gabrowska \u2194 Trzy Kopce"},"16063":{"end_start_time":30,"distance":1.095200,"start_end_time":20,"id":16063,"encoded":"MAKD3X<1D65`2D[1ES2Oc2D[4=k53S2AW4:S2?o36_2=_1Jg1Gc>o1OS1=P1ES48X2Ec4Kd24g4C`26c2@d3@_21d27k3T3:k>o2Hg1>k1MW16g3Ag8S38[Ek35W1=c2D[14k23_5P1@g1ClOk4NT3g37Td72l4[6Ld1>k9J\\1Ck60`25o80X17o7D\\24S7@d1Jg40h35W49`2Fk1Gd58gGT4BW4o20[=h1>k:P45g29h4>_1@T4NS13d4<c1BP37S24h2Io3O`27k4@\\19W4<d11g52`24gLS2Ec13c1<[BS6k3S7Io3Fg4oP1LccGSP","name":"Rzeki, Cyrkowe \u2194 Trusi\u00F3wka"},"16078":{"end_start_time":3,"distance":0.213900,"start_end_time":5,"id":16078,"encoded":"MAFHMP;OBMOd=S4C`1MW8Ah@k3Fh<`4KdC[94`3Bo6Jh?c72X2No8B\\","name":"Pod Turbaczykiem \u2194 Polana Turbaczyk"},"5413":{"end_start_time":10,"distance":0.488700,"start_end_time":10,"id":5413,"encoded":"M?L?Ah<42N9lGh21c;l2Cg14W91[1Bc3HcEW2FW1X5Mo?d26c21d4Fc6l1@g6k1Gc4\\2CgH\\2Do19X2Do1Eh19W1>X1AoGT22WNP7Io;X34c2_4;o6l2B_Gh4:g11T3>c17\\9<cJl3L[4\\3>c3S4H_17\\95g18d;4kId6JS","name":"\u015Aredni Gro\u0144 \u2194 Baza namiotowa Luba\u0144"},"16082":{"end_start_time":80,"distance":4.138200,"start_end_time":70,"id":16082,"encoded":"MA2FCX<0?L4`38[4H`2@c5?d3;_6MX1Jg36`9o32h9[24h19W2;dK_4Ad13c38\\:;k=Ah16S33\\K_32h1Eg3Ah23_2Ch1D_1Hl23_38\\1CWIP1ES3S28_Jl18c19l3B[5<`41[7>T17o3Il3S2JdBg2B`25[4KdNc3@`3T2;d5d49`?P4Fd4[3AhLh7JP6X5C\\@W3<h3T3Cd3T3NX12[5IdHo2;dOk2Hh1X1JhNd5A`8S1I`>o1BPOW27l1<o3J`P2;dEk44`14k3Md4[5@X7_83\\OW46\\1<o4>`16g5C\\GS2Jd5c2HhNd32h1@T2Od30l3Hd19X29hGh27lBh2;d1?`1@h1@T2>h=h13P8T2Ch@l59\\K`49`1Jh4C`19X44`JX89P58T9NhEl2MhBh27l>\\2=`24T3Kh2<X4>`2@d7KX5OX93l1CX8MP53TE1hEl3;`1Bd2L`Id1JT1>X2Ch2Od48X5d2>h8g2Fl>\\4=X1>l70\\16T97P1@h7CTJX6@T1;T5H\\@X55d1>l5H\\@X4M`;l4=X3B\\=J`IP4<d8h6;T1=P5F`27X85X;X7<l1W=O`>\\A@P5PD@XIc=?XOk;EhBg8Fh6W7CT>\\6:`;l5BTBg88\\=T71P19X4C`GT47d6k49`8T3;`16h5Dd1Cl8<hEX6?`6k3Hd:c3:l6X3:XEW2EdEk1Hl@W29hGh<Ed2I\\10<XH\\64XOl8;`21d9AdGh55d10`95T1:`4NT10`5H\\A`70\\3S;Ld1l7<X1:`<I\\2=`B<T8h52`=h4J\\?P44`6W47dNc7KX1Hk9<P7_50PNP<OdJl75\\4\\39d11h4O\\A`50dGh52`1@TJJhK_90T13c6ET2I[;Ld17o6MXBg9AP1F\\:5P19X7JP17\\A2X1X7FlCo9H`5P5OX5c71P?P=L\\P41\\9o59\\3g13P6W1BP1k=h3S=hNc47P=S1Ld;k1GP","name":"Polana Jaworzyna Kamienicka \u2194 Polana Przys\u0142op Dolny"},"16083":{"end_start_time":10,"distance":0.718300,"start_end_time":15,"id":16083,"encoded":"M@378l<03<=X16TK`5F`A_4H`GS18d14X1F\\16h23`1BP3<h13P6>l1K\\54\\2>h3Il31`4DT52`3IX66T4DT9:T66T<;d39d89P75\\=>d50P9Ll4AP84d6?`=Ah25\\6HX33\\37T26P<`2FX6k24h8h","name":"\u0141opuszna, Zar\u0119bek Ni\u017Cni \u2194 Pocz\u0105tek \u015Bcie\u017Cki edukacyjnej \"Z \u0141opusznej na Jank\u00F3wki\""},"16088":{"end_start_time":5,"distance":0.451700,"start_end_time":10,"id":16088,"encoded":"M@D<NX<053BX1GP36`3FT:C\\19l4Dh6X35lCoEK\\;k4APNc40T5@W=3\\6Ao99`37S2?\\2KW3;`2Do42d1OS4J\\LS45h?c5H\\2_45T","name":"Polana Jank\u00F3wki \u2194 R\u0105baniska"},"147":{"end_start_time":20,"distance":0.709700,"start_end_time":10,"id":147,"encoded":"MA;01d<27EDT40S22k3:k2;c2Cg1;S2:o@X1D_19l2EcEW4GW2;c3>c1Gc3L[K_33o3J_2Fk18c34c=g34c2>h1Jg1MX5H[36`2CgNd17oDP18cNP1Lc16S1JS1Og4M_86_73_@7o1;S23_37S3:WOkM[6OS4>_2Ec1;g3Go1Bc2Hg>[9?SEk41oOl3FS16h","name":"Skrzy\u017Cowanie pod Gorcem \u2194 Baza namiotowa Gorc"},"16090":{"end_start_time":5,"distance":0.339600,"start_end_time":5,"id":16090,"encoded":"M@BH@h<03I=`4C`1Ml7HT6BP;6T7N\\56l2FX1HX17\\1<\\OX8IX9H`4IT3FT3Dl39d14l11h24T2Od","name":"Pod Wyszni\u0105 \u2194 Polana Jank\u00F3wki"},"16094":{"end_start_time":15,"distance":0.838300,"start_end_time":25,"id":16094,"encoded":"M@>?FP<05A8\\8Md1OS?1X3Lo7<XP5@l11g2CT3S1>XJX3>P34d2:\\10`33\\<`2HhCo>4`66g:7`61g5A`4Ac35l39c6@T7Hg4BX35k2@P17o=7T4Lk<Hh6ES71d5=S26d1Mk2;P2:[","name":"Odej\u015Bcie \u015Bcie\u017Cki edukacyjnej \u2194 Pod Wyszni\u0105"},"16095":{"end_start_time":30,"distance":1.986300,"start_end_time":55,"id":16095,"encoded":"M@7>H`<05J<X4=l1Fo5GT@X28`H[5:P2_8IX22X3:l1CX57`3Cd30l3?X5<`<2l3DX=@`5:P=4P:dJXM\\3?X4o49`Ic9<POW:?dA_8O`1D`66T3O`5<`3:X2FX2I\\A`2Hh1=d6CX2EP2OP2I\\2<X3DX1=d1Gd2G`4DT4Ad37T7B`4O[68P3Hc5Gh4:g3KT1ES5GT1Bc50P32S42d1Ko57`14k42d=g3<h:P3Cd1ES4?h=g3>dDP4H`Jl57`3T40h:d4Nh11T6I`26d5BhGT6>l6l5=hGS6N`Nc4DT@k5IP1Hk53T2Mg4FP3E_47P4Ig27l3B[17\\3>cNc29g33o6k2@c1>k2G_4C_19W6F[LS54[1=c49_1@S5:cC[4C_19X5BS2@d50c1Ld3>cNd34cEk4M_Ic5BS8h54[12\\57_GT4Ac","name":"Ch\u0142apkowa \u2194 Odej\u015Bcie \u015Bcie\u017Cki edukacyjnej"},"16130":{"end_start_time":10,"distance":0.790000,"start_end_time":25,"id":16130,"encoded":"MAGB5h;N;9?h3FgOW2Mg<`2@c13P3G[18P3@_Bh2G_<_1I_8g1@g8hDLg<3`5EW49`4LW49`4?g4LX5EW5K`2:o1N`1A[Nd16S?c2Oc4o10_1;S;k26c34P7G_3Hd8?kM\\3G[=g4Kc15_3O_20o4@[30k4>_25o2;c25o2Ak46o43W77W4Jo37S20[4>_2N[","name":"Por\u0119ba G\u00F3rna \u2194 Odej\u015Bcie \u015Bcie\u017Cki edukacyjnej"},"16098":{"end_start_time":5,"distance":0.339800,"start_end_time":5,"id":16098,"encoded":"M@LHBd<0:AB\\A`18d1Eh3KhOX34P1D`29h2AlIP3?l8T71d16T3Hd1Ao43l>[2HTEW3?X1MW2HT30W52`37g1MX2:[2Kl44_2>T1Eg1;h16g3IX6k","name":"Kiczora \u2194 Trzy Kopce"},"16096":{"end_start_time":50,"distance":1.770900,"start_end_time":25,"id":16096,"encoded":"M@D<NX<053BXJX1>W17\\31_Gh2Jc6X3Ag1BP2=_2CT29g1Ld2MgA`4@[LS3Ag1Ao3E_1<o2KW3IX6@S40TBJ_91\\BDk1F\\8B[6l6@S12\\;=c3<gJk2KW3Ag1HW57_A_8<S1@T:6kId64W12o:Lg33o9Jo1;g7:oNd9=k4\\;@g1Ck;9k17\\<2k1l64kP5H[23`65_1BP5A_2EP4C_31`29g2>hNP23`22l27XP2Mh1Hk34P11g36`Mo3NX54[1F\\5:cEl4J[2B`66S2CT86_1HX56WEl5BS10`62[El5OW1Hk70[1=c51W10_45g33o4C_64W4C_FHS8:W;Fo2B_40S1;g6<o3>c4Gk3Kg","name":"Polana Jank\u00F3wki \u2194 Polana Kolasikowa"},"16097":{"end_start_time":20,"distance":1.272300,"start_end_time":30,"id":16097,"encoded":"M@>?FP<05A8\\26P1K[27X2@c3>d2B_3Dl1Gc3E`2>S29h1K[1Oh1Gc1=d2<k17\\31_32T8<S3>d6F[21d6CW1OT6CW4H`;6g3?X7Io:d5<_8h7:o=S8<S=S6CW12o4M_23_46[27k3Nk29g3E_4DT3>d5;l1N`2MT39P3B\\6Jh6Hl=2T2Al79h11T32TEX2Fl16T8Dl1N`6A\\12\\1F\\1I`37h2B`1Oh3>P6W6HX46o4KP1ES80X1Gc6=P3:k4Bl1?_2?\\@l38\\1Jh2AXIP9H`>o8G\\NP3O`@X2N\\JX","name":"Odej\u015Bcie \u015Bcie\u017Cki edukacyjnej \u2194 Pod Wyszni\u0105"},"16099":{"end_start_time":150,"distance":6.108200,"start_end_time":95,"id":16099,"encoded":"M@LHBd<0:AB\\Jk24T7_1MlF`9Dh1k1Ml14W3>d2B_:@lA_5;X14k57`9o68d1Ao87T3S2@d3S2@d1W36`C[3E`3S5H\\>[4=XNc2JP1Ao3;`3E_98l30k39d4IS5A`39c41\\58g<Ed:c75\\16S4;\\1I_5M\\1D_4AdM[6JTDc2MhM[6K\\Nc44`1@S4Bl7Ak;@T4O[67\\3;_5H\\76c4@\\29g1Hl5Ok5=h2N[1?`2I[1k26c8h3:k<`53gH[3Go3T4M_NP2I[4o29gHo<Fk1Jh4NS6k56W@l5>o16h5OW2:\\5GS1F[41[1;g3E_5P2Cg@l5=g1OT3=[2HT3G[45h2HS1Oh2G_1MX3FSK`33[@l5F_3@`5;k2>h3O_27l3Cc1Ld3?k:P2I[>[2NoF_3IW3Cc7@c5=S72W4?g2:o1;g2Cg1MW7HS4=W30kIc3IW2`8Ag3<T47c29T3:W2<X3E_3Cd62[5;X22W27l2:o2Jd1N_1=P5Ho2;d=Ik:6X2Jc3KT2?[78`4=W?;l4O[?A`2FW69X2@c4Ad3?W3NX59o5H\\4H_4Bl5Ok51X4@o8Dl3>c7:\\3KS4Gl1>k2:\\1Ck3J`90S=L\\3:W6A\\2HS5H\\:c36`@X2Al13d3J`1k2@d2CS7N\\1Ko2JP<No7B`70[21P6ES2MT3AS45h=Fg7@d30k23`1<[27l2Do5@X2>g4=l3IW92P5K_>0T2Ak6MX1@g3;`2=_5:d6;S=E`4<c:?P1Hk5=TMo6MX20[4>`25o3>d2>g4FdEk5JX11S8Nl7_>=X3O_??d1Ck9FP2FkA0\\<_2HT5d2JdJX2Fl8h29h=S1Jh4?S<Mh52_@2\\=S5Dd2>g73`:c1Hl;W3:l6W:0d1Lc6@h17[66h9o5<`2?[8FT2CS5A`37S6BP4Gk61h35k3?X59o7Fl1ES3HP1F[4BX2Cg4H`4Eo7I\\16S2N\\F_35X?c7Hh1;g6N`3S56XP4H`BS3@`@W1OT2Hg5;l5>o8DX2AW51l4EoAOd1Og:Jl3Cc::d3DW9<P:c16h8g5GhH[98l1Gc6Ml2<k6:`2MS6:`29g2B`2=_1@T3Kg3?X1Ko4>`1Jg1Ld19W2@P1?_5H\\K_23`17[2>h1ES13P56kF_1?_9\\1F[1OT2Mg:3h2`1JhGh1Gd16h5d2Jd<`IP?P6l1;h6k1ClJk1LdLS1CX5BS7;P25o2@P4<c4Gl6;g8NX3?W36`3<g1>l35W2;d5@W9GX17[4LX19k4FP4:g61h1Lc44`1:_4Ih>o3<Tc2JP9o40T25[6Ld8O_:;X5Ic74h13cH\\1ESGT3Cc17[","name":"Kiczora \u2194 Ochotnica G\u00F3rna, Ustrzyk"},"16598":{"end_start_time":3,"distance":0.098400,"start_end_time":1,"id":16598,"encoded":"M@O4HT;OG<@X2=`2Mh2:\\3?X19X26PBh1K\\3S42dC\\4=lJl25\\","name":"Schronisko PTTK Turbacz, rozej\u015Bcie szlak\u00F3w \u2194 Hala Wolnica"},"16108":{"end_start_time":10,"distance":0.385500,"start_end_time":5,"id":16108,"encoded":"MA2FCX<0?L4`;l4J[1Jh3Cc3>P61S1OT4Fc1=d34c;l3O_LS6<[1I_6@S18c5?cDc6@SHo7>SA_5A_:c54[1Mk6ESBg3Ik6W6CW7_3L[3T3?kJk2=_","name":"Polana Jaworzyna Kamienicka \u2194 Zb\u00F3jecka Jama"},"16122":{"end_start_time":15,"distance":0.976200,"start_end_time":25,"id":16122,"encoded":"MAEOHd;N8@<`1CW16g2=_1ES:6k23_4Dg1=c:C[5F_69k2Oc6@g5>[:3g7Io6I_6HW>Eo>6[38[2>g1I_6lEk2>hGT29h2<X4DT3>P;9X79TA6P3AT:6l3?X?3T2N\\?A`1=d7HT1GP4@\\3IX:@l1Oh9:h1@T5:P","name":"Por\u0119ba G\u00F3rna, Chlipa\u0142y \u2194 Odej\u015Bcie \u015Bcie\u017Cki edukacyjnej"},"16125":{"end_start_time":20,"distance":1.223000,"start_end_time":30,"id":16125,"encoded":"MA8F2T;N@:OlF_9Dh1K[<Ch?c3O`11h5K`OX6;T17\\64X1;T6D`H\\5=T2_5Id;k5BT>o4Ad14k4KdNc;ETA`9BX6k3MdH[40h19W7;d30k:K`16g48X=S5<`:P1Ml:d3<T1Jh99`d79h1MXB6`27X=NXJX4C`1Ml6Gd=T4Gl1Bd8DlJl78`1Cl=L\\3T8Dl:d3FTM\\55d13P;>X5cCKdBT87TdE=d1W9DT","name":"Polana Pudziska \u2194 Obidowiec"},"8077":{"end_start_time":3,"distance":0.226500,"start_end_time":5,"id":8077,"encoded":"MB4D0\\<343Kd1JS1F\\41[3HP35W2Mh4E[44`1OS1>X2No22l2Cg1=P5=S2L`1OS12\\;k6X6Bc48l","name":"Szczawa, most \u2194 Szczawa"},"16145":{"end_start_time":30,"distance":1.875100,"start_end_time":65,"id":16145,"encoded":"MAM1IT;O0<2d1?_19W:8g3L[4Ac3:W1F[24g2:[2MS41[5<_3DW30k33oc5Ek2L`1OgF_1Bc1>WMo1CW32S7HS1<[1Ao5Mo2CgGg=T5C[32h4OoBg6?_P3Bo6Ml2?[2>h24g1;h1HW1@h7MS7AX20[GT2N[?P2Fk14k26c9o6OS2Hh44_?d28_1X8Kg1Fo2:[1@g2:o2L_2?[1Hk66g3Kg33o2L_28_30k10_3Cc1Ao4LW2:[29g5C[70[3Kg70o1@g39c5d2?o24T46[25\\2Ec2:\\1>k1>X1@g11T20oP2Ec1<o27k3Hc6OS27W4;[>[50cDc5H[1Gc56W1HW7?[1:_64W20o66S2Fk64W2@c5K_2?[49_3Hc1Ko41[1D_3?k35k1MW3Mc1;S4@[6k46[?d3Ag5c2Mg14k3;_2=_2Hg1Mk29g1K[2<kA_2@c1Jg1>k24g24g24S2Jc29S3J_1K[34c1>k2Jc1@g34c16S4Fc2:o2>g37S1Eg43k6l35k9o4LW18c","name":"Koninki \u2194 Skrzy\u017Cowanie przy polanie Jaworzyna Por\u0119bska"},"16129":{"end_start_time":30,"distance":1.619000,"start_end_time":30,"id":16129,"encoded":"MAD=Md;NI1<P52_3J_3<S2Fk27kM[3E_1;g85W1A[8@_<`6Og1Ko2AWF_54oP51W?c3Nk1@h4;o14l4?g22X12o@X7L_1BP3Cc17[2D[1F[2MSGg20o5P39c1=d4>_BT48k=h5EW10`?9o79T9@o55d2DoBh3<S17[7KW5;W90S4LW3:W1Bc3Lo@l:;k2I\\7G_4?T8@_27l6@S2Mh3E_6l2CSCo3<g1Hl4Eo2OP@>W39c8=[52_20oEW2<W5dA=_41\\6D_1N`95g46\\31_NP2No8g29gOW","name":"Polana Tobo\u0142\u00F3w \u2194 Polana Suhora"},"72":{"end_start_time":215,"distance":9.049900,"start_end_time":140,"id":72,"encoded":"M?L?Ah<42N9l2G_1>l1ES4o2No1Bc1Ck3hLg18P10_29hCo3L\\<`3?lJX3E`IP5@X9o;MlJk50d38o9Ad2Fk3<h3Nk64l87g>C`24S3Kh>o3E`11g34P2Ak54\\49_69X6Ck6MX3KS6A\\2AW55P17o52`1K[4AP1Bc61T11g2JP4J[6>l27k4;\\33[3Kh14k2;d12[3Md1<o2>T41[44`2>g33\\1Og3IX19k3HP3=o5;X17[4>`6k9:h2_3FhBg37hM[3>d19W33\\16S2EP1>k2>h20[4=X1I_9AP1>W67\\1@g;Cl16S3@`1;g39d12o2OdHo2Hh1ES2G`16S1@T4Ig4GX5BS39d3Fg2Jd2=_2>h3Go49`33o49`20[3Hd23_4C`1:_42dBg4<d20o4GX9o2Fl1X5JX@W6F\\22k8Nl1;S70\\1=c58TLg4M`1I_4M`1I_32h4C_7B`K_1GP1@g4Bl1Lc4Fd35W5Jl1Og4?T23_3B\\23_6Gd13c68P1A[3Cd40S5BT2AW6CX1Bc75\\19W70\\25o<8`@k53hEk9?h1Ko98l3=[=4d2<W4C`7Cg;Ld7:o9?T41o6BP2@c62\\2@c7<X5Ic?3h1=c2<l30W6K\\32S5C\\3Go87T9BWL:lDc4C`>o48X5P4@\\9[5IP1<o7Kl1@g5K`1K[9E\\3Lo=CPMo7EP;W49`Jk3Ah34c8>P29S7HTMo7OP2Cg97P1N_:3T29SAJP22W54\\7_45h1X1Eh;W1Bd1Gc3=\\1JS1=P1Fo=T3Ik29T>8W7I\\12[3h34c11g2No8S2Io1<\\2B_2Kl1Gc39d1?_46\\Ek2Od4[2Ed1W6>X5c5>\\H[4FP1Ao4<P1A[1Ml2:[2Od17o1=P2G_4O\\4?S7;P2;c43lOk1Hl1;S16h1N_24h2N[1Jh9Fc5@X7>g2KX4Ng17\\1OSGT3?W2=`1A[1GP19W23`LS2>h?c3<h8S27l9o3B\\4\\5>\\IP5A`18P5K`>\\5GT1W35l:c2L`3=o:8h17[4J\\>[47d6l3?l2?\\<6d11h5Dd7_4Dh11SBMP5P3CP1;h;8dC\\5K`3T5<`11g80X4[58T3T39d@W31`M[1Jh21c2<l4@o6CX7>S=6`6D_95T6N_9Kd46[9?T6KoA:\\1?_2B`1Fo1Gd1D_1;h1A[1=P1F[2Fl3:k58T3Dk3Nl3E_2?\\3Ik1Oh49_13d80kEX11S;XOWBh5>oDP2No19X2HSLh21cDd3B[?P1ES@l6Eg32h4NS2Od64k2Ch6Eg1MX<FW3:X21cGh1Ao1@h46[57`3Ik44`3?k41\\29S2G`2B_1OT5:c1Oh91[18P3?kNP5EW1?`5<_?P7I[=T4=k2Mh33o23`4H_1JT7MS5:P58g5=h4Oo32h1CWNP58S9[5C[2Ec55c;k4C_P4LW>\\Dc12\\15_LhOkNP1:_1>l62o8>P49_89P3KS4C`51k4@\\;;g:F`5OW76d45S5C\\>?gG9d51W9Nh3KS5Id3B[3KT3Mc3:X6;S34d1N_1K\\5Lg8DX4Jo57`16S13P3@_37T73_4Dh>Ig7CT3@_11h29S8g2FW@l28_18d1Gc1Cl1A[2>hNc1@T3h7Kl1ET>?TP3KTJk30l2AW2HT4;[2Ed8Mc3Hd45g18P3?WGh4BWJl58g;X6OS19l8>c31`8Ag4>`;4W4>`3=o1=P1>k16h19W1JhK_2Kl14k64XHo82T16S6;T30W7CT5GS:0P4Fc6F\\;ES:2`2@c46\\1>W5EXP35XOl35X1HX18d37TF_45T1l2<X1MX1>l2HT;l2Fl1l=h2Hg<7l2:o;8d3S40T7`5?dDc3;`1A[3Il1Gc1@h27W1l3Fg24g28_1X20o1=P2>g49`56k?EX2D[5Dd2Fk2Hh1LcLh1;SDP3L[16h3Kh107l1D`>:hGh3Hd11T37T50d=5l1CW1D`37S3@`29S2;P26c2HT5?c6JT48k5JX1@g2CT1OS2>TOk17\\=S;X<_6W=S3S=Sd=S3hCo=hA_Dd=SK`8SOl1k11h3h11h","name":"\u015Aredni Gro\u0144 \u2194 Kro\u015Bcienko, rondo"},"16138":{"end_start_time":5,"distance":0.330700,"start_end_time":5,"id":16138,"encoded":"M@A;OT;OK8Bl3IXDc4;\\8S79T1Eh61h:dElDc2;P23_3Fh5K_3:X4Jo20\\1>W3HP14k2;PEk1BP>o40h2<W4BX14X3L\\5d","name":"Gaj\u00F3wka Miko\u0142aja \u2194 Odej\u015Bcie \u015Bcie\u017Cki edukacyjnej"},"16142":{"end_start_time":10,"distance":0.303500,"start_end_time":5,"id":16142,"encoded":"MA2FCX<0?L4`1=dGT35X:P48l11S3Dl8g2Ed3S1I`Lg14X3g3:XM[42d1@g2HTP4=X11h6;h31`2G`OX4=l1k2HTBh1=dLT14l16T","name":"Polana Jaworzyna Kamienicka \u2194 Widok na zbocza Kud\u0142onia"},"16143":{"end_start_time":45,"distance":2.853600,"start_end_time":80,"id":16143,"encoded":"MAO5I\\<00LGl2N[Ic9Gk2I[27W16g52_4IS25o1I_4Ig2G_5BS2HS73_2Jc23_:c1Jg9[3;_17\\;Lc6>l4@o1GP4:gLT45g1X7>g14k6Lc17o4:g:P:Co18d3GoH\\32S17\\JW5Bh15_6ClC[3Dl5Ok2D\\43k17\\5Bg1BP6@S2Od1F[Ol3@_21P27k>\\1OgLh9=k26P4Gk22l20o18P2CS2G`20[22l2I[11T95g:P4;oGS27k1X1<[1Bd1Ao3Ah1Ao29h23_=h27k19l1A[3E`32S4Kd4;[5NP4[3Hd1@g3>P54[77l17[22l8J_3O`3CcNP4NSMo2MS@k58S8T6<[14k2KW1D`3IW11h1LcDc5>[29h16g23`4\\29h1Cl6F\\8T32h8S2I\\9o2@P1@S2Od25[37h4M_6A\\1JS4<d1@S1MX4H_51l35W4LX22W40h32g56X3L[5:d3>c2Jd1Ko2<l@k3>d1;g31`2HS3;`4?S3Cd2@c@l2Jc1Hl30W30l2L_3>d2FW1Jh29g:P1Mk8S3<g1@g2Oc1Ao5MoDc32S4o2Oc26d1K[2?\\3AS4Ll2?[:Jl2FW4:T1Ao2OP46[8>P3Bo6ET2CS30l:5cEMX3B[73`32g5M\\2Kk6GP2Ak6LP4C_B0XMo4H`Bg5F`14k61T","name":"Konina \u2194 Skrzy\u017Cowanie przy polanie Kopa"},"106":{"end_start_time":60,"distance":3.957500,"start_end_time":105,"id":106,"encoded":"M@817T;N@2@P26d56X47P64l2<X20\\3IX35l11hK`1K\\38\\45T25\\1BdLT1F\\10`2Jd1F\\4?T1Cl><d39P8KT2FX53h>9`1>X5OX9\\14l>\\1LP1@T39d15`?P3L\\27l40T49`2B`5=h29T6JhBT9AP1OgE2\\@X2=`K`45T3:l67\\3AT2Od2Od1<\\29h3T2@dOW33\\10_1JhC\\23`1=d1:`32h;l2Ed11g3FT1N_42P>o3?l1X22XGh26d2>h3L\\1>l3FTH\\43l2>h6@T22l2Kl43X43l22l2MT2Ed6:`M\\2MT33\\5Gh2KX7<l2MT:OXNd42dH\\6<\\14l51l1?`28`M\\EX37h4o1Ml14X?dIPEl1K\\GT4O\\4\\3MdF`4M`28`4J\\19X3@`1:`3>d1@T4E\\1Bd3Md2=`82T3AT7>T27l3:X2Ch89P1=P2?\\3DX47d29h2>h1=P30X15`34d1N`4Dh1HX2Jd1LP2L`4?h48l5K`4GX5@X49`4Bl36`3NX30l21P2EP3<T4IT26d24T47P3Il32h4=X2EP2AX43l30l2<X2:\\4Ad52`2;d1GP1N`Jl=@`15`3?l2_1OT2=`5<`5=T9BX91\\6I`5Bh3Md4BX33\\49`24T5Bh13P54\\2HT8IX27X5@X2B`54\\6I`:OX8G\\?@l57`6Oh2>h2>h33\\2@P6CX3AT2?\\1Oh9H`<9h1HX1HX1Ld11h2JP6X19lGg8:X83[4?T2No79T8@_35l2FW:F`4J[68d?P22XBh47P3T69XEk22l4\\21dIP9Nh80l1@hNd1MX2_47P8h5K`21P1=P>\\14l3T1GdLh24T8T2EP1l60`1Ck2=`4o66T21d2>TNP26d8T1>l>o54\\5Mo14l1:_2<lHo2Hh14X5F`11T47P9\\5JX2HT2I\\Id7FX1=d2FlK`55P3<T3G\\31`4DT1A\\","name":"Nowy Targ, Oleks\u00F3wki \u2194 Bukowina Miejska"},"16144":{"end_start_time":25,"distance":1.758000,"start_end_time":50,"id":16144,"encoded":"MAC4Al<0:45P1@g8>P5c7FXDc7<X1:_7;P=S5Id14k82T1I_7>T29S3J`12[2Od1Mk30l4Bk8?l1F[3Kh1I_64XJk40TEW2Fl1@g3Il2Ec48X25o1LP22W8h51kOl29SLT1?_1=d16S2>hJk47d11S29h15_1=P1CW2=`24g59\\23_63d9[34d@W4BX2?[83\\H[4=X15`30l24T54\\Dd36`>o2<l1Mk49`M[3;`;k2MhDd24h1>X2Od1=d27lLh1>l5c24h16S34dJW2OdHo90T8g6GPDd7KXA`5<`8g4E\\GT57`2AX90h3h39dBg2ChJk40h1W4BXM[4H`18c3Kh2Kk32h20[28`2Cg57`23_5F`2>S6OT2?[4LX29g4M`2B_49`4o=h3Kg1OT5BS4Fd4Gk77X3L[4=X2;c4Fd34c5;X40g9:h5F_3O`67o27l1HWIP54[57`Bg6=P8S3ATEX47P9o5Jl19k3B\\1D_26PLgDP12o:P","name":"Skrzy\u017Cowanie przy polanie Kopa \u2194 Pustak"},"16147":{"end_start_time":10,"distance":0.584400,"start_end_time":20,"id":16147,"encoded":"MACKGT;O7;L`21c1Eg4@[20o12o1N_8T35W;X4;[7_64W8S=2g11h9LkJX65_Ek8?W1k6@S=S2Jc1;gP1Og2MT2<W3KT18c34P29g3KT1OS18P27k6k>o2<kJW62[1k6CW10_=g1CkA`1MW14XLg35W1Bc1N_30WJl2<kJl2Fk=T1Ao18P3J_2Hh","name":"Potok Turbacz, odej\u015Bcie \u015Bcie\u017Cki edukacyjnej \u2194 Droga stokowa, rozej\u015Bcie szlak\u00F3w"}}}